city,country,latitude,longitude,land_2000,land_2010,land_growth,pop_2000,pop_2010,pop_growth,density_2000,density_2010,density_growth,type_country
Pearl River Delta,China,22.3098687,114.30819,4478,6969,0.556,26835836,41757816,0.556,5993,5992,0,upper-middle-income
Tokyo,Japan,35.7090259,139.7319925,5434,5570,0.025,27695526,31788261,0.148,5097,5707,0.12,high-income
Shanghai,China,31.230416,121.473701,1605,3482,1.169,14020969,24196318,0.726,8735,6949,-0.204,upper-middle-income
Jakarta,Indonesia,-6.2087634,106.845599,1338,1600,0.196,16291976,23431674,0.438,12174,14643,0.203,lower-middle-income
Beijing,China,39.904211,116.407395,1827,2716,0.487,10754014,16707094,0.554,5887,6151,0.045,upper-middle-income
Manila,Philippines,14.5995124,120.9842195,1024,1275,0.245,12202314,16521948,0.354,11916,12958,0.087,lower-middle-income
Seoul,Republic of Korea,37.566535,126.9779692,1067,1192,0.117,14277211,15898238,0.114,13378,13342,-0.003,high-income
Osaka,Japan,34.6937378,135.5021651,2047,2073,0.013,10637811,12273967,0.154,5196,5922,0.14,high-income
Bangkok,Thailand,13.7563309,100.5017651,1910,2126,0.113,7825880,9555372,0.221,4098,4495,0.097,upper-middle-income
Tianjin,China,39.084158,117.200983,1127,1655,0.469,6266363,8788168,0.402,5561,5311,-0.045,upper-middle-income
Shantou,China,23.354091,116.681972,980,1207,0.232,6692103,8458895,0.264,6826,7006,0.026,upper-middle-income
Chengdu,China,30.572269,104.066541,605,1069,0.767,4636284,8323450,0.795,7662,7787,0.016,upper-middle-income
Ho Chi Minh City,Vietnam,10.8230989,106.6296638,549,815,0.485,5309190,7761835,0.462,9671,9528,-0.015,lower-middle-income
Nagoya,Japan,35.1814464,136.906398,1772,1882,0.062,6368802,7426344,0.166,3594,3946,0.098,high-income
Wuhan,China,30.593099,114.305393,713,945,0.325,5474500,7342134,0.341,7677,7768,0.012,upper-middle-income
Hong Kong SAR,China,22.396428,114.109497,201,219,0.09,6665000,7024200,0.054,33232,32129,-0.033,upper-middle-income
Bandung,Indonesia,-6.9148644,107.6082421,433,512,0.182,4797409,6946592,0.448,11068,13571,0.226,lower-middle-income
Shenyang,China,41.805699,123.431472,816,1035,0.268,5842383,6904495,0.182,7162,6673,-0.068,upper-middle-income
Taipei City,Taiwan,25.0329694,121.5654177,477,587,0.231,6203242,6640562,0.07,13001,11309,-0.13,high-income
Hangzhou,China,30.274085,120.15507,518,1318,1.544,3464101,6386447,0.844,6687,4844,-0.276,upper-middle-income
Surabaya,Indonesia,-7.2642396,112.7455788,644,726,0.127,4395779,6104808,0.389,6822,8410,0.233,lower-middle-income
Kuala Lumpur,Malaysia,3.139003,101.686855,1541,1739,0.128,3972896,5750078,0.447,2579,3306,0.282,upper-middle-income
Xi'an,China,34.341568,108.940175,476,735,0.544,4187660,5736306,0.37,8806,7801,-0.114,upper-middle-income
Ha Noi,Vietnam,21.0277644,105.8341598,584,851,0.457,3534648,5642882,0.596,6049,6634,0.097,lower-middle-income
Chongqing,China,29.56301,106.551557,328,593,0.808,3347836,5035794,0.504,10218,8497,-0.168,upper-middle-income
Quanzhou,China,24.874132,118.675676,643,924,0.437,3451403,4789766,0.388,5368,5184,-0.034,upper-middle-income
Nanjing,China,32.060255,118.796877,241,448,0.859,2837423,4505328,0.588,11798,10051,-0.148,upper-middle-income
Xiamen,China,24.479834,118.089425,493,777,0.576,2342286,4267814,0.822,4747,5491,0.157,upper-middle-income
Taiyuan,China,37.87059,112.548879,561,728,0.298,3162224,4243100,0.342,5637,5830,0.034,upper-middle-income
Qingdao,China,36.067117,120.382612,690,804,0.165,3253798,4163504,0.28,4717,5178,0.098,upper-middle-income
Medan,Indonesia,3.5915405,98.6692998,438,456,0.041,2909037,3929132,0.351,6649,8624,0.297,lower-middle-income
Harbin,China,45.803775,126.534967,446,533,0.195,2842427,3809061,0.34,6374,7153,0.122,upper-middle-income
Zhengzhou,China,34.747041,113.625805,244,404,0.656,1993042,3805762,0.91,8179,9414,0.151,upper-middle-income
Changsha,China,28.228209,112.938814,249,444,0.783,2233013,3680654,0.648,8954,8290,-0.074,upper-middle-income
Hefei,China,31.820587,117.227239,217,406,0.871,1677081,3623909,1.161,7717,8937,0.158,upper-middle-income
Anshan,China,41.108647,122.994329,718,848,0.181,3242167,3494160,0.078,4515,4122,-0.087,upper-middle-income
Dalian,China,38.914003,121.614682,493,550,0.116,2737479,3488541,0.274,5550,6339,0.142,upper-middle-income
Changchun,China,43.817072,125.323544,614,767,0.249,2489821,3477619,0.397,4058,4534,0.117,upper-middle-income
Yangon City,Myanmar,16.780833,96.149722,371,390,0.051,2637028,3416962,0.296,7113,8771,0.233,low-income
Singapore,Singapore,1.2800945,103.8509491,337,404,0.199,2539073,3412239,0.344,7529,8457,0.123,high-income
Shijiazhuang,China,38.042307,114.51486,447,496,0.11,2606693,3384804,0.299,5836,6826,0.17,upper-middle-income
Fuzhou,China,26.074508,119.296494,368,525,0.427,2421588,3380510,0.396,6576,6445,-0.02,upper-middle-income
Kunming,China,24.880095,102.832892,307,445,0.45,2295856,3158163,0.376,7469,7097,-0.05,upper-middle-income
Busan,Republic of Korea,35.1795543,129.0756416,240,275,0.146,2832947,3132865,0.106,11798,11384,-0.035,high-income
Jinan,China,36.651216,117.12,257,305,0.187,2255667,2952471,0.309,8792,9694,0.103,upper-middle-income
Wenzhou,China,27.994267,120.699367,205,299,0.459,1693733,2920413,0.724,8247,9767,0.184,upper-middle-income
Semarang,Indonesia,-6.966667,110.416667,329,365,0.109,2025802,2857742,0.411,6155,7832,0.272,lower-middle-income
Wuxi,China,31.49117,120.31191,228,489,1.145,1713658,2808589,0.639,7520,5744,-0.236,upper-middle-income
Ningbo,China,29.868336,121.54399,310,630,1.032,1552379,2752235,0.773,5010,4370,-0.128,upper-middle-income
Kaohsiung,Taiwan,22.6272784,120.3014353,384,400,0.042,2623091,2719206,0.037,6834,6797,-0.005,high-income
Changzhou,China,31.811226,119.974062,205,477,1.327,1578729,2698018,0.709,7706,5654,-0.266,upper-middle-income
Nanchang,China,28.682892,115.858198,232,337,0.453,1726117,2496129,0.446,7456,7400,-0.008,upper-middle-income
Urumqi,China,43.825592,87.616848,326,466,0.429,1634389,2460166,0.505,5015,5279,0.053,upper-middle-income
Zibo,China,36.813487,118.054927,453,508,0.121,1985469,2320662,0.169,4380,4569,0.043,upper-middle-income
Taizhou,China,28.656386,121.420757,175,370,1.114,1378319,2285429,0.658,7882,6179,-0.216,upper-middle-income
Malang,Indonesia,-7.9839081,112.6213938,250,265,0.06,1635664,2242804,0.371,6544,8463,0.293,lower-middle-income
Lanzhou,China,36.061089,103.834304,163,194,0.19,1618504,2179529,0.347,9910,11264,0.137,upper-middle-income
Xinxiang,China,35.302928,113.926975,335,396,0.182,1775110,2137221,0.204,5304,5393,0.017,upper-middle-income
Surakarta,Indonesia,-7.566667,110.816667,376,379,0.008,1589226,2125451,0.337,4225,5615,0.329,lower-middle-income
Tegal,Indonesia,-6.8588473,109.1047663,216,248,0.148,1433025,2106735,0.47,6640,8480,0.277,lower-middle-income
Guiyang,China,26.647661,106.630154,106,150,0.415,1482035,2104868,0.42,13924,13997,0.005,upper-middle-income
Tangshan,China,39.630867,118.180194,421,525,0.247,1836665,2103384,0.145,4359,4004,-0.081,upper-middle-income
Fukuoka,Japan,33.5903547,130.4017155,343,356,0.038,1735889,1992756,0.148,5058,5592,0.106,high-income
Xuzhou,China,34.205768,117.284124,249,325,0.305,1483869,1910886,0.288,5949,5873,-0.013,upper-middle-income
Baotou,China,40.657378,109.840349,273,337,0.234,1380563,1895406,0.373,5058,5623,0.112,upper-middle-income
Taegu,Republic of Korea,35.8714354,128.601445,226,255,0.128,1589839,1845485,0.161,7035,7227,0.027,high-income
Luoyang,China,34.619683,112.45404,144,193,0.34,1237071,1841029,0.488,8587,9539,0.111,upper-middle-income
Baoding,China,38.873891,115.464806,445,494,0.11,1537185,1835688,0.194,3454,3713,0.075,upper-middle-income
Huhehaote,China,40.842585,111.749181,241,291,0.207,1249880,1825047,0.46,5196,6278,0.208,upper-middle-income
Taichung,Taiwan,24.1477358,120.6736482,199,244,0.226,1641289,1815569,0.106,8230,7445,-0.095,high-income
Nanning,China,22.817002,108.366543,176,236,0.341,1175617,1799783,0.531,6663,7642,0.147,upper-middle-income
Yogyakarta,Indonesia,-7.7970684,110.3705267,233,234,0.004,1352200,1799090,0.33,5799,7701,0.328,lower-middle-income
Cixi,China,30.17078,121.266595,187,437,1.337,1014606,1747370,0.722,5424,4000,-0.263,upper-middle-income
Sapporo,Japan,43.0620958,141.3543763,307,315,0.026,1464374,1705112,0.164,4763,5414,0.137,high-income
George Town,Malaysia,5.414921,100.3297612,326,396,0.215,1107706,1682629,0.519,3399,4253,0.251,upper-middle-income
Datong,China,40.076763,113.300129,325,351,0.08,1392065,1661874,0.194,4288,4737,0.105,upper-middle-income
Cirebon,Indonesia,-6.7372457,108.5506562,149,171,0.148,1132600,1656403,0.462,7611,9683,0.272,lower-middle-income
Linyi,China,35.104672,118.356448,245,348,0.42,1198264,1655936,0.382,4886,4753,-0.027,upper-middle-income
Palembang,Indonesia,-2.990934,104.7565565,199,205,0.03,1192519,1602228,0.344,5998,7806,0.301,lower-middle-income
Tasikmalaya,Indonesia,-7.333333,108.2,78,93,0.192,1060054,1594737,0.504,13515,17090,0.265,lower-middle-income
Makassar,Indonesia,-5.1308551,119.4165284,113,139,0.23,1094912,1591997,0.454,9684,11464,0.184,lower-middle-income
Handan,China,36.625657,114.538962,237,253,0.068,1379549,1590079,0.153,5824,6296,0.081,upper-middle-income
Huaiyin,China,33.61036,119.015288,308,327,0.062,1367428,1562746,0.143,4442,4781,0.076,upper-middle-income
Weifang,China,36.706774,119.161756,290,319,0.1,983235,1550370,0.577,3391,4864,0.434,upper-middle-income
Kitakyushu,Japan,33.8834093,130.8752161,353,372,0.054,1355953,1539317,0.135,3846,4141,0.077,high-income
Cebu,Philippines,10.3156992,123.8854366,123,161,0.309,1017447,1527407,0.501,8268,9461,0.144,lower-middle-income
Changzhi,China,36.195386,113.116255,262,304,0.16,1237616,1482858,0.198,4716,4881,0.035,upper-middle-income
Denpasar,Indonesia,-8.65,115.216667,210,227,0.081,1070835,1473252,0.376,5098,6488,0.273,lower-middle-income
Anyang,China,36.097577,114.392393,217,242,0.115,1227106,1465481,0.194,5648,6056,0.072,upper-middle-income
Jiaozuo,China,35.215893,113.241823,259,328,0.266,1194575,1430027,0.197,4608,4362,-0.053,upper-middle-income
Xining,China,36.617134,101.778224,131,215,0.641,953312,1425406,0.495,7267,6643,-0.086,upper-middle-income
Phnom Penh,Cambodia,11.5448729,104.8921668,107,164,0.533,917645,1405381,0.532,8546,8596,0.006,low-income
Tongzhou,China,39.909965,116.656437,84,186,1.214,788922,1401105,0.776,9413,7551,-0.198,upper-middle-income
Haikou,China,20.044002,110.198293,167,195,0.168,954719,1395896,0.462,5706,7175,0.257,upper-middle-income
P'yongyang,DPR Korea,39.0392193,125.7625241,125,133,0.064,1236843,1393413,0.127,9934,10482,0.055,low-income
Jiexiu,China,37.026945,111.916712,344,413,0.201,1190879,1383251,0.162,3457,3352,-0.03,upper-middle-income
Yantai,China,37.463822,121.447935,200,246,0.23,909546,1364297,0.5,4556,5553,0.219,upper-middle-income
Jember,Indonesia,-8.1844859,113.6680747,227,231,0.018,1021160,1358347,0.33,4494,5890,0.311,lower-middle-income
Sukabumi,Indonesia,-6.9196,106.9272,76,96,0.263,895799,1357948,0.516,11758,14201,0.208,lower-middle-income
Liuzhou,China,24.325502,109.415953,119,154,0.294,1035513,1329755,0.284,8716,8617,-0.011,upper-middle-income
Johor Bahru,Malaysia,1.492659,103.7413591,271,416,0.535,820597,1297170,0.581,3026,3116,0.03,upper-middle-income
Putian,China,25.454085,119.007777,291,355,0.22,1106458,1278041,0.155,3806,3603,-0.053,upper-middle-income
Jilin,China,43.837883,126.549572,271,292,0.077,1199748,1261145,0.051,4433,4318,-0.026,upper-middle-income
Kediri ,Indonesia,-7.816611,112.011917,248,274,0.105,903834,1256399,0.39,3646,4586,0.258,lower-middle-income
Maoming,China,21.662999,110.925456,135,152,0.126,982408,1250113,0.272,7294,8241,0.13,upper-middle-income
Qinhuangdao,China,39.935385,119.600493,256,306,0.195,967441,1235994,0.278,3784,4043,0.068,upper-middle-income
Yingkou,China,40.667012,122.235418,405,442,0.091,1117204,1228493,0.1,2757,2778,0.008,upper-middle-income
Xingtai,China,37.070589,114.504844,186,203,0.091,1046755,1221274,0.167,5620,6003,0.068,upper-middle-income
Hai Phong,Vietnam,20.8449115,106.6880841,161,199,0.236,817540,1221115,0.494,5066,6144,0.213,lower-middle-income
Yinchuan,China,38.487194,106.230909,72,157,1.181,640602,1214059,0.895,8944,7736,-0.135,upper-middle-income
Lingxi,China,41.85509,123.418262,73,143,0.959,837401,1201395,0.435,11413,8383,-0.265,upper-middle-income
Xiangtan,China,27.829738,112.944049,74,156,1.108,675776,1192105,0.764,9155,7633,-0.166,upper-middle-income
Jiangyin,China,31.920658,120.284939,104,280,1.692,710260,1190623,0.676,6846,4254,-0.379,upper-middle-income
Daqing,China,46.58931,125.103784,236,253,0.072,941134,1188452,0.263,3995,4704,0.177,upper-middle-income
Jinzhou,China,39.05046,121.782769,237,262,0.105,992998,1153086,0.161,4198,4403,0.049,upper-middle-income
Zhangjiakou,China,40.767545,114.886335,226,245,0.084,995515,1151806,0.157,4405,4706,0.068,upper-middle-income
Garut,Indonesia,-7.227906,107.908699,34,46,0.353,666347,1136920,0.706,19671,24749,0.258,lower-middle-income
Mandalay,Myanmar,21.975,96.083333,111,130,0.171,821889,1130511,0.376,7375,8709,0.181,low-income
Sendai,Japan,38.268215,140.8693558,237,252,0.063,967641,1118370,0.156,4077,4439,0.089,high-income
Cikampek,Indonesia,-6.4000784,107.4437538,92,106,0.152,762106,1116340,0.465,8295,10556,0.273,lower-middle-income
Kaifeng,China,34.797282,114.307583,193,202,0.047,992299,1096110,0.105,5148,5415,0.052,upper-middle-income
Dandong,China,40.000787,124.354451,158,210,0.329,885944,1090500,0.231,5596,5196,-0.071,upper-middle-income
Huaibei,China,33.955845,116.798265,174,192,0.103,794811,1086694,0.367,4570,5653,0.237,upper-middle-income
Chifeng,China,42.257817,118.886856,189,247,0.307,901473,1076946,0.195,4776,4365,-0.086,upper-middle-income
Cianjur,Indonesia,-6.8172531,107.1307289,60,69,0.15,715682,1066550,0.49,11854,15415,0.3,lower-middle-income
Kwangju,Republic of Korea,35.1595454,126.8526012,87,108,0.241,875400,1037511,0.185,10098,9634,-0.046,high-income
Huainan,China,32.625478,116.999933,117,122,0.043,760337,1028920,0.353,6492,8421,0.297,upper-middle-income
Changshu,China,31.653686,120.752503,87,244,1.805,514981,1013254,0.968,5902,4151,-0.297,upper-middle-income
Yungkang,Taiwan,22.5610378,120.5630596,216,226,0.046,966804,1010274,0.045,4481,4464,-0.004,high-income
Cilacap,Indonesia,-7.7279893,109.0059091,94,101,0.074,720831,1007170,0.397,7679,9978,0.299,lower-middle-income
Zhanjiang,China,21.270708,110.359377,103,130,0.262,728541,1001648,0.375,7052,7712,0.094,upper-middle-income
Yangzhou,China,32.39421,119.412966,68,140,1.059,758087,996295,0.314,11159,7129,-0.361,upper-middle-income
Matsumoto,Japan,36.2380381,137.9720341,72,75,0.042,882656,994253,0.126,12206,13279,0.088,high-income
Bandar Lampung,Indonesia,-5.4478853,105.2652883,64,77,0.203,684822,989952,0.446,10711,12919,0.206,lower-middle-income
Madiun,Indonesia,-7.6238601,111.5349059,161,184,0.143,685327,985763,0.438,4247,5352,0.26,lower-middle-income
Wuhu,China,31.352859,118.432941,49,102,1.082,428018,984407,1.3,8802,9633,0.094,upper-middle-income
Puyang,China,35.761829,115.029216,194,198,0.021,830564,979104,0.179,4287,4945,0.153,upper-middle-income
Tai'an,China,36.200252,117.087614,131,148,0.13,803343,978461,0.218,6129,6631,0.082,upper-middle-income
Hengyang,China,26.893231,112.571997,86,118,0.372,675730,975756,0.444,7852,8300,0.057,upper-middle-income
Purwokerto,Indonesia,-7.4313912,109.2478304,135,145,0.074,693106,973449,0.404,5144,6708,0.304,lower-middle-income
Nara,Japan,34.6850869,135.8050002,203,231,0.138,817294,971420,0.189,4021,4206,0.046,high-income
Jining,China,35.414921,116.587099,76,112,0.474,661202,948244,0.434,8743,8490,-0.029,upper-middle-income
Taejon,Republic of Korea,36.3504119,127.3845475,77,90,0.169,744641,943405,0.267,9624,10432,0.084,high-income
Rui'an,China,27.778657,120.655148,85,127,0.494,680105,939427,0.381,8037,7397,-0.08,upper-middle-income
Zhuzhou,China,27.82755,113.134003,82,105,0.28,736314,936971,0.273,8939,8929,-0.001,upper-middle-income
Jiaonan,China,28.2901249,102.1923901,180,211,0.172,596625,929658,0.558,3307,4402,0.331,upper-middle-income
Ulaanbaatar,Mongolia,47.92,106.92,210,271,0.29,631407,926999,0.468,3008,3419,0.137,lower-middle-income
Huangshi,China,30.199652,115.03852,91,115,0.264,763297,920313,0.206,8411,7981,-0.051,upper-middle-income
Xiangfan,China,32.008986,112.122415,185,221,0.195,781445,919560,0.177,4235,4170,-0.015,upper-middle-income
Tengzhou,China,35.084021,117.164388,218,246,0.128,821156,915301,0.115,3759,3725,-0.009,upper-middle-income
Yueqing,China,28.122909,120.962198,89,128,0.438,633291,912721,0.441,7126,7127,0,upper-middle-income
Yining,China,43.977138,81.527454,271,333,0.229,679323,898094,0.322,2506,2698,0.077,upper-middle-income
Otsu,Japan,35.0178929,135.8546074,138,147,0.065,770753,896976,0.164,5580,6123,0.097,high-income
Zhangjiagang,China,31.875697,120.555678,70,197,1.814,469905,887045,0.888,6761,4501,-0.334,upper-middle-income
Da Nang,Vietnam,16.0544068,108.2021667,63,88,0.397,562091,869178,0.546,8967,9870,0.101,lower-middle-income
Qiqiha'er,China,47.354348,123.918186,121,127,0.05,792670,864329,0.09,6565,6782,0.033,upper-middle-income
Mudanjiang,China,44.551653,129.633169,224,234,0.045,746196,857631,0.149,3329,3670,0.102,upper-middle-income
Guilin,China,25.273566,110.290195,85,111,0.306,635003,854828,0.346,7515,7692,0.024,upper-middle-income
Yiwu,China,29.306841,120.075058,106,165,0.557,534537,851974,0.594,5031,5167,0.027,upper-middle-income
Fuqing,China,25.720381,119.383811,244,307,0.258,735597,847205,0.152,3020,2760,-0.086,upper-middle-income
Naha,Japan,26.2123124,127.6791568,157,163,0.038,731696,846516,0.157,4659,5183,0.112,high-income
Baoji,China,34.363184,107.237743,69,121,0.754,531108,844665,0.59,7656,6956,-0.091,upper-middle-income
Gaizhou,China,40.400611,122.348936,154,222,0.442,595708,844254,0.417,3859,3804,-0.014,upper-middle-income
Benxi,China,41.486981,123.685143,109,136,0.248,715831,837997,0.171,6552,6184,-0.056,upper-middle-income
Ulsan,Republic of Korea,35.5383773,129.3113596,89,100,0.124,745368,837089,0.123,8375,8392,0.002,high-income
Yueyang,China,29.357104,113.128958,73,113,0.548,515533,831491,0.613,7092,7334,0.034,upper-middle-income
Batam,Indonesia,1.0456264,104.0304535,77,156,1.026,518573,829182,0.599,6773,5320,-0.215,lower-middle-income
Davao,Philippines,7.190708,125.455341,65,76,0.169,609127,826172,0.356,9353,10835,0.158,lower-middle-income
Hiroshima,Japan,34.3852029,132.4552927,156,159,0.019,740061,822189,0.111,4748,5173,0.09,high-income
Keshi,China,39.4704,75.989755,54,124,1.296,454516,821663,0.808,8369,6626,-0.208,upper-middle-income
Banyuwangi,Indonesia,-8.2190214,114.3691047,68,71,0.044,599201,819574,0.368,8755,11543,0.318,lower-middle-income
Suqian,China,33.963232,118.275198,56,80,0.429,389091,819101,1.105,6925,10287,0.485,upper-middle-income
Pingxiang,China,27.622768,113.854556,57,89,0.561,568907,799482,0.405,9992,8958,-0.103,upper-middle-income
Dongying,China,37.434751,118.674767,371,410,0.105,612193,796045,0.3,1648,1942,0.178,upper-middle-income
Yangquan,China,37.856972,113.580519,98,151,0.541,662606,794900,0.2,6796,5249,-0.228,upper-middle-income
Ma'anshan,China,31.670452,118.50676,62,127,1.048,455287,790210,0.736,7299,6241,-0.145,upper-middle-income
Banjarmasin,Indonesia,-3.3166941,114.5901104,87,104,0.195,545564,787625,0.444,6298,7610,0.208,lower-middle-income
Pekan Baru,Indonesia,0.5335047,101.4474036,141,144,0.021,590951,787093,0.332,4206,5473,0.301,lower-middle-income
Yichang,China,30.691967,111.286471,73,88,0.205,655989,786909,0.2,9009,8949,-0.007,upper-middle-income
Blitar,Indonesia,-8.0947855,112.1728283,120,126,0.05,578102,785872,0.359,4815,6228,0.293,lower-middle-income
Fuxin,China,42.021619,121.670324,220,257,0.168,748333,785000,0.049,3396,3059,-0.099,upper-middle-income
Dingzhou,China,38.516174,114.990159,228,239,0.048,725623,775914,0.069,3188,3253,0.02,upper-middle-income
Pingdingshan,China,33.76617,113.192661,84,100,0.19,642630,775628,0.207,7650,7737,0.011,upper-middle-income
Zhenjiang,China,32.187849,119.425836,64,153,1.391,482589,774978,0.606,7518,5071,-0.325,upper-middle-income
Rizhao,China,35.416329,119.526885,149,204,0.369,539538,773990,0.435,3612,3799,0.052,upper-middle-income
Pekalongan,Indonesia,-6.896143,109.6758346,49,55,0.122,529210,772419,0.46,10828,14028,0.296,lower-middle-income
Shouguang,China,36.85548,118.790652,321,370,0.153,688317,771558,0.121,2142,2088,-0.025,upper-middle-income
Liaocheng,China,36.45703,115.98546,160,168,0.05,583027,771418,0.323,3645,4582,0.257,upper-middle-income
Klaten,Indonesia,-7.6916505,110.6125484,111,112,0.009,578473,768554,0.329,5203,6893,0.325,lower-middle-income
Ipoh,Malaysia,4.597479,101.090106,325,361,0.111,522104,767926,0.471,1607,2130,0.325,upper-middle-income
Changde,China,29.031673,111.698497,53,104,0.962,486643,767877,0.578,9107,7379,-0.19,upper-middle-income
Panjin,China,41.119997,122.070714,207,246,0.188,667329,767846,0.151,3225,3125,-0.031,upper-middle-income
Kanazawa,Japan,36.5613254,136.6562051,201,212,0.055,663843,766266,0.154,3308,3623,0.095,high-income
Melaka,Malaysia,2.189594,102.2500868,235,257,0.094,528406,762225,0.442,2247,2969,0.321,upper-middle-income
Heze,China,35.23375,115.480656,213,226,0.061,692658,760494,0.098,3260,3364,0.032,upper-middle-income
Zunhua,China,40.189202,117.965892,152,323,1.125,496995,760424,0.53,3274,2354,-0.281,upper-middle-income
Jombang,Indonesia,-7.5740867,112.28609,154,161,0.045,549299,748155,0.362,3568,4656,0.305,lower-middle-income
Linfen,China,36.088005,111.518976,139,147,0.058,568847,748120,0.315,4083,5096,0.248,upper-middle-income
Fuji,Japan,35.3605555,138.7277777,156,163,0.045,658864,746877,0.134,4218,4582,0.086,high-income
Bangbu,China,32.916287,117.389719,68,86,0.265,517550,746620,0.443,7667,8720,0.137,upper-middle-income
Mianyang,China,31.46745,104.679114,60,121,1.017,434987,746217,0.715,7242,6177,-0.147,upper-middle-income
Nanyang,China,32.990833,112.528322,129,141,0.093,588785,736666,0.251,4573,5213,0.14,upper-middle-income
Cangzhou,China,38.304477,116.838835,155,170,0.097,615587,732705,0.19,3978,4316,0.085,upper-middle-income
Gaobeidian,China,39.326521,115.873758,219,246,0.123,655031,732542,0.118,2994,2982,-0.004,upper-middle-income
Ganzhou,China,25.831829,114.93503,97,163,0.68,483313,730870,0.512,4960,4482,-0.096,upper-middle-income
Kumamoto,Japan,32.8031004,130.7078911,173,183,0.058,635842,729407,0.147,3677,3984,0.083,high-income
Pemalang,Indonesia,-6.929645,109.3664237,62,69,0.113,513675,728516,0.418,8344,10587,0.269,lower-middle-income
Jinhua,China,29.079059,119.647445,107,170,0.589,427695,721042,0.686,3988,4234,0.062,upper-middle-income
Shangqiu,China,34.414172,115.65637,157,172,0.096,609493,712897,0.17,3876,4149,0.07,upper-middle-income
Yancheng,China,33.347383,120.163562,32,74,1.312,355094,709995,0.999,11140,9652,-0.134,upper-middle-income
Zhuji,China,29.708692,120.246863,124,196,0.581,519486,705961,0.359,4192,3609,-0.139,upper-middle-income
Kebumen,Indonesia,-7.6799425,109.6817865,103,103,0,528169,700532,0.326,5134,6793,0.323,lower-middle-income
Wafangdian,China,39.627114,121.979603,198,238,0.202,643989,699578,0.086,3251,2941,-0.095,upper-middle-income
Kota Kinabalu,Malaysia,5.980408,116.0734568,172,186,0.081,474805,686283,0.445,2763,3700,0.339,upper-middle-income
Yixing,China,31.340637,119.823407,62,167,1.694,391524,685518,0.751,6283,4117,-0.345,upper-middle-income
Jiaxing,China,30.753924,120.758543,42,119,1.833,288370,684648,1.374,6795,5775,-0.15,upper-middle-income
Angeles City,Philippines,15.1449853,120.5887029,136,186,0.368,425633,683176,0.605,3135,3678,0.173,lower-middle-income
Xuchang,China,34.035506,113.85264,110,120,0.091,545096,680479,0.248,4947,5694,0.151,upper-middle-income
Hamamatsu,Japan,34.7108344,137.7261258,272,292,0.074,595201,674588,0.133,2190,2312,0.056,high-income
Shaoyang,China,27.238893,111.467791,49,83,0.694,424401,673554,0.587,8672,8133,-0.062,upper-middle-income
Hsinchu,Taiwan,24.8066493,120.9669257,82,118,0.439,563946,671268,0.19,6914,5683,-0.178,high-income
Probolinggo,Indonesia,-7.7519778,113.2155943,80,87,0.088,487699,668426,0.371,6106,7705,0.262,lower-middle-income
Mataram,Indonesia,-8.5819476,116.1166863,55,58,0.055,485721,667904,0.375,8912,11540,0.295,lower-middle-income
Luohe,China,33.581413,114.016539,131,139,0.061,558349,666726,0.194,4252,4805,0.13,upper-middle-income
Huzhou,China,30.894348,120.086823,58,135,1.328,357371,663470,0.857,6142,4899,-0.202,upper-middle-income
Bojonegoro,Indonesia,-7.1541064,111.882192,160,164,0.025,488469,660006,0.351,3060,4020,0.314,lower-middle-income
Subang,Indonesia,-6.5715888,107.7587325,87,90,0.034,482961,658050,0.363,5563,7312,0.314,lower-middle-income
Weihai,China,37.513068,122.12042,93,109,0.172,446449,652726,0.462,4807,5995,0.247,upper-middle-income
Padang,Indonesia,-0.95,100.353056,49,59,0.204,413468,651847,0.577,8449,11013,0.303,lower-middle-income
Samarinda,Indonesia,-0.502106,117.153706,58,58,0,492048,651438,0.324,8438,11148,0.321,lower-middle-income
Guigang,China,23.111531,109.598927,94,146,0.553,467409,644620,0.379,4982,4402,-0.116,upper-middle-income
Siping,China,43.16642,124.350398,147,167,0.136,540907,642660,0.188,3672,3848,0.048,upper-middle-income
Anqing,China,30.543494,117.063755,33,64,0.939,339235,638129,0.881,10203,9990,-0.021,upper-middle-income
Mojokerto,Indonesia,-7.563831,112.4768287,40,46,0.15,442119,635802,0.438,11175,13841,0.239,lower-middle-income
Tulungagung,Indonesia,-8.0843211,111.9045541,84,93,0.107,457056,634928,0.389,5421,6841,0.262,lower-middle-income
Xintai,China,35.909032,117.767953,118,125,0.059,620911,632581,0.019,5256,5068,-0.036,upper-middle-income
Leshan,China,29.552106,103.765568,107,147,0.374,488282,631904,0.294,4569,4290,-0.061,upper-middle-income
Zhujiang,China,22.6702311,113.6293916,58,112,0.931,346865,630432,0.818,5948,5623,-0.055,upper-middle-income
Buon Ma Thuot,Vietnam,12.6661944,108.0382475,101,104,0.03,445429,629858,0.414,4410,6045,0.371,lower-middle-income
Jincheng,China,35.490702,112.851831,107,111,0.037,497757,628869,0.263,4652,5650,0.215,upper-middle-income
Jiamusi,China,46.799778,130.318879,135,139,0.03,634466,624897,-0.015,4700,4508,-0.041,upper-middle-income
Mito,Japan,36.3658556,140.4712215,227,232,0.022,553591,624427,0.128,2439,2694,0.105,high-income
Yangjiang,China,21.857958,111.982232,73,101,0.384,459785,622483,0.354,6272,6144,-0.02,upper-middle-income
Jingzhou,China,30.335165,112.239741,89,96,0.079,596963,618009,0.035,6731,6421,-0.046,upper-middle-income
Fuyang,China,32.890124,115.814205,53,67,0.264,508038,616993,0.214,9597,9226,-0.039,upper-middle-income
Yiyang,China,28.55386,112.35518,43,86,1,357388,613929,0.718,8323,7160,-0.14,upper-middle-income
Suzhou,China,31.298974,120.585297,187,194,0.037,573473,612831,0.069,3074,3161,0.028,upper-middle-income
Zigong,China,29.33903,104.778442,38,52,0.368,413510,608639,0.472,10972,11733,0.069,upper-middle-income
Hai Du'o'ng,Vietnam,20.9385958,106.3206861,130,153,0.177,396779,607919,0.532,3061,3986,0.302,lower-middle-income
Linqing,China,36.838277,115.704881,137,139,0.015,569018,605440,0.064,4148,4348,0.048,upper-middle-income
Toyama,Japan,36.6959518,137.2136768,228,248,0.088,522349,605029,0.158,2289,2443,0.067,high-income
Lufeng,China,22.917576,115.65226,85,96,0.129,473773,604998,0.277,5549,6327,0.14,upper-middle-income
Changwon,Republic of Korea,38.8432393,127.5597067,65,70,0.077,552104,603503,0.093,8535,8683,0.017,high-income
Zunyi,China,27.725654,106.927389,40,61,0.525,521195,600097,0.151,12909,9899,-0.233,upper-middle-income
Jixi,China,45.295075,130.969333,125,136,0.088,600426,598560,-0.003,4803,4407,-0.082,upper-middle-income
Kuching,Malaysia,1.56,110.345,193,244,0.264,388354,595475,0.533,2014,2444,0.214,upper-middle-income
Magelang,Indonesia,-7.4639801,110.2224273,27,27,0,448740,592931,0.321,16934,22375,0.321,lower-middle-income
Yulin,China,38.28539,109.734589,61,74,0.213,472276,588669,0.246,7695,7928,0.03,upper-middle-income
Tokushima,Japan,34.0702703,134.5548438,134,151,0.127,499584,587043,0.175,3742,3893,0.04,high-income
Niigata,Japan,37.9161924,139.0364126,191,199,0.042,503097,574967,0.143,2631,2892,0.099,high-income
Jambi,Indonesia,-1.59,103.61,63,63,0,431346,573476,0.33,6854,9112,0.329,lower-middle-income
Shaoguan,China,24.810403,113.597522,109,147,0.349,461333,573407,0.243,4232,3891,-0.081,upper-middle-income
Langfang,China,39.538047,116.683752,126,144,0.143,437952,568551,0.298,3476,3940,0.133,upper-middle-income
Toyohashi,Japan,34.7691995,137.3914662,225,236,0.049,508605,558657,0.098,2264,2372,0.048,high-income
Zoucheng,China,35.405185,117.003743,105,118,0.124,506430,558469,0.103,4840,4748,-0.019,upper-middle-income
Wu'an,China,36.696506,114.203697,145,171,0.179,454228,558172,0.229,3126,3258,0.042,upper-middle-income
Pingdu,China,36.776358,119.98842,173,183,0.058,519413,556773,0.072,3009,3051,0.014,upper-middle-income
Renqiu,China,38.711812,116.099562,104,105,0.01,519950,556074,0.069,4985,5274,0.058,upper-middle-income
Dengzhou,China,32.687576,112.087395,198,200,0.01,483015,555884,0.151,2443,2781,0.138,upper-middle-income
Heyuan,China,23.743686,114.700961,91,144,0.582,251874,551008,1.188,2764,3840,0.389,upper-middle-income
Linhai,China,28.858449,121.145057,54,115,1.13,319452,543022,0.7,5902,4719,-0.2,upper-middle-income
Ponorogo,Indonesia,-7.8649166,111.4610991,31,55,0.774,327844,541877,0.653,10491,9864,-0.06,lower-middle-income
Jiujiang,China,29.705078,116.00193,55,76,0.382,383667,541149,0.41,6976,7156,0.026,upper-middle-income
Bacolod,Philippines,10.6407389,122.9689565,48,79,0.646,338784,538628,0.59,7123,6851,-0.038,lower-middle-income
Changhua,Taiwan,24.0517963,120.5161352,102,119,0.167,494207,537015,0.087,4836,4520,-0.065,high-income
Bozhou,China,33.844582,115.778676,219,221,0.009,504236,533051,0.057,2308,2409,0.044,upper-middle-income
Nha Trang,Vietnam,12.2387911,109.1967488,62,64,0.032,381913,531538,0.392,6197,8322,0.343,lower-middle-income
Purwakarta,Indonesia,-6.5386806,107.4499404,40,43,0.075,378305,529361,0.399,9458,12311,0.302,lower-middle-income
Nam Ha,Vietnam,18.3339509,105.9054085,64,78,0.219,349694,526333,0.505,5432,6753,0.243,lower-middle-income
Gaocheng,China,38.021567,114.847075,108,113,0.046,507709,525873,0.036,4720,4641,-0.017,upper-middle-income
Fengrun,China,39.832582,118.162216,127,151,0.189,466616,522186,0.119,3662,3462,-0.055,upper-middle-income
Wuchuan,China,21.441808,110.778411,59,70,0.186,422843,520278,0.23,7213,7406,0.027,upper-middle-income
Shangrao,China,28.454863,117.943433,53,74,0.396,358369,518442,0.447,6778,7036,0.038,upper-middle-income
Vinh,Vietnam,18.6795848,105.6813333,79,85,0.076,361060,516865,0.432,4545,6112,0.345,lower-middle-income
Kuningan,Indonesia,-6.9810103,108.4928912,44,50,0.136,351896,516544,0.468,8032,10331,0.286,lower-middle-income
Jepara,Indonesia,-6.5749575,110.670528,34,48,0.412,300849,515577,0.714,8784,10783,0.228,lower-middle-income
Nanchong,China,30.837793,106.110698,35,56,0.6,335005,515455,0.539,9453,9194,-0.027,upper-middle-income
Zaozhuang,China,34.810488,117.323725,88,99,0.125,444724,515331,0.159,5057,5215,0.031,upper-middle-income
Qingkou,China,24.261072,98.700269,127,142,0.118,523659,514848,-0.017,4113,3637,-0.116,upper-middle-income
Kota Bharu,Malaysia,6.1167855,102.2776838,79,82,0.038,359373,510515,0.421,4553,6240,0.371,upper-middle-income
Qingzhou,China,36.684528,118.479622,109,131,0.202,432006,508340,0.177,3977,3890,-0.022,upper-middle-income
Chongju,Republic of Korea,36.6424341,127.4890319,56,68,0.214,429729,505351,0.176,7614,7487,-0.017,high-income
Huludao,China,40.711041,120.83694,151,174,0.152,409188,503681,0.231,2708,2888,0.066,upper-middle-income
Qianan,China,39.999175,118.701144,134,219,0.634,363478,502660,0.383,2704,2299,-0.15,upper-middle-income
Tongliao,China,43.65289,122.243444,74,100,0.351,390464,502161,0.286,5281,5000,-0.053,upper-middle-income
Qitaihe,China,45.771727,131.003138,136,145,0.066,382435,501774,0.312,2818,3458,0.227,upper-middle-income
Yushu,China,32.993107,97.008785,360,361,0.003,497588,501590,0.008,1384,1388,0.003,upper-middle-income
Songyuan,China,45.141789,124.825118,189,201,0.063,425169,497559,0.17,2247,2472,0.1,upper-middle-income
Danyang,China,32.010117,119.606536,32,92,1.875,252324,495893,0.965,7854,5420,-0.31,upper-middle-income
Hejian,China,38.446624,116.099518,100,102,0.02,459790,494716,0.076,4578,4862,0.062,upper-middle-income
Huicheng,China,23.084122,114.382541,55,67,0.218,379380,494343,0.303,6882,7427,0.079,upper-middle-income
Dezhou,China,37.434093,116.357465,75,83,0.107,383837,489380,0.275,5139,5918,0.152,upper-middle-income
Yongkang,China,28.888555,120.047651,88,128,0.455,320031,487909,0.525,3647,3808,0.044,upper-middle-income
Liaoyuan,China,42.887767,125.14366,87,96,0.103,476911,487379,0.022,5498,5100,-0.072,upper-middle-income
Hue,Vietnam,16.4498,107.5623501,54,62,0.148,338503,484141,0.43,6312,7777,0.232,lower-middle-income
Tongling,China,30.945516,117.811267,37,83,1.243,312737,484001,0.548,8495,5831,-0.314,upper-middle-income
Dongyang,China,29.289648,120.241566,93,144,0.548,355321,483297,0.36,3821,3361,-0.12,upper-middle-income
Nankang,China,25.661471,114.765403,46,109,1.37,270360,483239,0.787,5869,4451,-0.242,upper-middle-income
Dongsheng,China,39.822507,109.963339,33,112,2.394,161849,482313,1.98,4933,4321,-0.124,upper-middle-income
Yuncheng,China,35.026412,111.007529,157,163,0.038,418262,481974,0.152,2660,2959,0.112,upper-middle-income
Laiwu,China,36.213814,117.676724,89,108,0.213,429151,480770,0.12,4839,4444,-0.082,upper-middle-income
Yanji,China,42.891255,129.508946,94,109,0.16,383347,479099,0.25,4100,4393,0.071,upper-middle-income
Laizhou,China,37.177017,119.942327,174,184,0.057,463395,477541,0.031,2660,2592,-0.026,upper-middle-income
Shengzhou,China,29.56141,120.831026,80,132,0.65,354534,477522,0.347,4421,3619,-0.181,upper-middle-income
Shiyan,China,32.629397,110.797991,48,56,0.167,335976,476957,0.42,7045,8536,0.212,upper-middle-income
Qujing,China,25.49,103.796167,63,105,0.667,299740,476271,0.589,4730,4536,-0.041,upper-middle-income
Wuwei,China,37.928262,102.638084,44,62,0.409,339230,473692,0.396,7754,7671,-0.011,upper-middle-income
Jati,Indonesia,-6.8300602,110.8374104,51,54,0.059,350187,470620,0.344,6833,8715,0.275,lower-middle-income
Fenghuang,China,27.948014,109.598722,101,102,0.01,430252,466914,0.085,4270,4561,0.068,upper-middle-income
Zhumadian,China,33.011529,114.022298,29,38,0.31,190390,465514,1.445,6637,12250,0.846,upper-middle-income
Balikpapan,Indonesia,-1.2697669,116.8361715,53,57,0.075,337265,462531,0.371,6424,8150,0.269,lower-middle-income
Guiping,China,23.394326,110.079379,47,73,0.553,306345,460121,0.502,6475,6314,-0.025,upper-middle-income
Akesu,China,41.168779,80.260605,178,203,0.14,361333,459563,0.272,2026,2259,0.115,upper-middle-income
Mawlamyine,Myanmar,16.484722,97.625833,67,70,0.045,355508,459143,0.292,5301,6547,0.235,low-income
Longkou,China,37.646064,120.477836,143,164,0.147,411317,458007,0.114,2868,2788,-0.028,upper-middle-income
Haining,China,30.510659,120.680757,18,83,3.611,150350,457800,2.045,8155,5524,-0.323,upper-middle-income
Meizhou,China,24.288615,116.122239,54,68,0.259,348206,457284,0.313,6493,6700,0.032,upper-middle-income
Taizhou,China,28.656386,121.420757,26,77,1.962,194775,457132,1.347,7509,5927,-0.211,upper-middle-income
Shangyu,China,30.033121,120.868122,62,143,1.306,262240,456764,0.742,4251,3200,-0.247,upper-middle-income
Linzhou,China,36.083047,113.82013,84,98,0.167,527261,455636,-0.136,6310,4670,-0.26,upper-middle-income
Sanya,China,18.252847,109.511909,59,83,0.407,270525,452888,0.674,4595,5490,0.195,upper-middle-income
Matsuyama,Japan,33.8391574,132.7655752,114,126,0.105,391528,451335,0.153,3429,3595,0.048,high-income
Tonghua,China,41.728401,125.939697,75,91,0.213,390346,450378,0.154,5196,4939,-0.049,upper-middle-income
Pontianak,Indonesia,0,109.333333,43,44,0.023,336557,449560,0.336,7804,10335,0.324,lower-middle-income
Leiyang,China,26.422275,112.859795,46,69,0.5,351786,449138,0.277,7732,6468,-0.163,upper-middle-income
Xinyu,China,27.817809,114.917347,48,86,0.792,291990,445156,0.525,6075,5154,-0.152,upper-middle-income
Okayama,Japan,34.6551456,133.9195019,121,128,0.058,385758,444509,0.152,3178,3461,0.089,high-income
Peicheng,China,38.3911111,120.9116667,88,96,0.091,430469,441257,0.025,4885,4596,-0.059,upper-middle-income
Shucheng,China,31.462026,116.948668,59,71,0.203,416245,440450,0.058,7040,6225,-0.116,upper-middle-income
Shimizu,Japan,35.0158879,138.4895275,105,107,0.019,394597,439863,0.115,3745,4111,0.098,high-income
Kendari,Indonesia,-3.972201,122.5149028,112,119,0.062,319891,437152,0.367,2859,3675,0.285,lower-middle-income
Chenzhou,China,25.77051,113.014718,43,69,0.605,274959,437069,0.59,6432,6340,-0.014,upper-middle-income
Beihai,China,21.481254,109.119927,64,96,0.5,302233,434079,0.436,4709,4533,-0.037,upper-middle-income
Kisaran,Indonesia,2.92577,99.7381762,26,28,0.077,316700,432338,0.365,12008,15580,0.297,lower-middle-income
Tieling,China,42.223828,123.726035,98,136,0.388,384129,432085,0.125,3910,3170,-0.189,upper-middle-income
Yichun,China,27.815619,114.416778,34,52,0.529,291154,431362,0.482,8548,8315,-0.027,upper-middle-income
Zhucheng,China,35.995654,119.410103,89,106,0.191,362735,431269,0.189,4056,4059,0.001,upper-middle-income
Danzhou,China,19.521134,109.580811,55,65,0.182,344051,430116,0.25,6291,6624,0.053,upper-middle-income
Quzhou,China,28.97008,118.859457,73,105,0.438,268182,429560,0.602,3674,4091,0.114,upper-middle-income
Jixian,China,40.045865,117.40828,93,122,0.312,379939,427120,0.124,4102,3497,-0.147,upper-middle-income
Chon Buri,Thailand,13.3611431,100.9846717,83,125,0.506,277602,426783,0.537,3365,3414,0.015,upper-middle-income
Chaoyang,China,41.573734,120.450372,55,85,0.545,241121,425482,0.765,4374,5024,0.149,upper-middle-income
Binzhou,China,37.38199,117.970703,140,162,0.157,337816,419732,0.242,2415,2592,0.073,upper-middle-income
Hegang,China,47.349916,130.297964,93,102,0.097,421273,419696,-0.004,4530,4100,-0.095,upper-middle-income
Wuzhou,China,23.476963,111.279115,39,55,0.41,285510,419275,0.469,7286,7623,0.046,upper-middle-income
Zouping,China,36.862989,117.743109,79,118,0.494,280152,419252,0.497,3529,3542,0.004,upper-middle-income
Tongxiang,China,30.630173,120.565099,22,67,2.045,188194,419251,1.228,8387,6305,-0.248,upper-middle-income
Liu'an,China,30.233873,119.724733,64,81,0.266,326150,418976,0.285,5111,5185,0.014,upper-middle-income
Yibin,China,28.751769,104.643215,38,57,0.5,297737,418199,0.405,7913,7289,-0.079,upper-middle-income
Zhoukou,China,33.626149,114.696951,27,32,0.185,253859,417814,0.646,9337,13082,0.401,upper-middle-income
Kofu,Japan,35.66228,138.5682015,104,111,0.067,359246,417783,0.163,3471,3768,0.086,high-income
Deyang,China,31.126856,104.397894,36,60,0.667,255837,411996,0.61,7144,6824,-0.045,upper-middle-income
Sui'an,China,34.341568,108.940175,82,124,0.512,333520,409821,0.229,4089,3318,-0.189,upper-middle-income
Hamhung,DPR Korea,39.916667,127.533333,29,30,0.034,376821,409398,0.086,12994,13878,0.068,low-income
Weinan,China,34.499995,109.509786,82,86,0.049,396169,407020,0.027,4835,4757,-0.016,upper-middle-income
Chengde,China,40.952942,117.96275,20,39,0.95,244114,404184,0.656,11981,10281,-0.142,upper-middle-income
Lishi,China,37.517641,111.150733,66,77,0.167,300405,402471,0.34,4543,5252,0.156,upper-middle-income
Rongcheng,China,37.16516,122.486658,116,133,0.147,386671,402240,0.04,3324,3022,-0.091,upper-middle-income
Pematangsiantar,Indonesia,2.970042,99.0681668,21,37,0.762,216614,401157,0.852,10567,10733,0.016,lower-middle-income
Xinji,China,37.943123,115.218021,112,113,0.009,401106,400071,-0.003,3597,3535,-0.017,upper-middle-income
Zhangqiu,China,36.681299,117.526212,43,59,0.372,279674,397828,0.422,6542,6693,0.023,upper-middle-income
Sanmenling,China,21.755921,109.80421,64,65,0.016,357265,397812,0.113,5593,6085,0.088,upper-middle-income
Can Tho,Vietnam,10.0451618,105.7468535,29,34,0.172,267320,397353,0.486,9139,11687,0.279,lower-middle-income
Luzhou,China,28.871811,105.442258,32,53,0.656,240307,397189,0.653,7408,7530,0.016,upper-middle-income
Bazhou,China,39.125898,116.391386,83,117,0.41,305142,396820,0.3,3688,3379,-0.084,upper-middle-income
Feicheng,China,36.182571,116.768358,53,65,0.226,334695,394288,0.178,6330,6072,-0.041,upper-middle-income
Zhuozhou,China,39.485283,115.974422,108,140,0.296,329378,394244,0.197,3064,2812,-0.082,upper-middle-income
Ezhou,China,30.39194,114.894843,34,51,0.5,281083,391710,0.394,8192,7652,-0.066,upper-middle-income
Bangtou,China,25.3941253,118.6252788,59,80,0.356,319879,388525,0.215,5427,4834,-0.109,upper-middle-income
Loudi,China,27.700063,111.993497,40,67,0.675,260116,386385,0.485,6483,5789,-0.107,upper-middle-income
Jingdezhen,China,29.268836,117.17842,49,67,0.367,320772,386228,0.204,6497,5727,-0.119,upper-middle-income
Sungai Petani,Malaysia,5.643589,100.4894179,89,119,0.337,252428,385959,0.529,2842,3233,0.138,upper-middle-income
Shuangyashan,China,46.646509,131.159133,127,133,0.047,348673,385403,0.105,2750,2905,0.056,upper-middle-income
Xinyang,China,32.146984,114.091023,74,85,0.149,350969,383335,0.092,4743,4513,-0.048,upper-middle-income
Jingjiang,China,31.982751,120.277138,20,60,2,204681,382924,0.871,10139,6349,-0.374,upper-middle-income
Singaraja,Indonesia,-8.116611,115.0839515,35,37,0.057,274948,382463,0.391,7856,10250,0.305,lower-middle-income
Beiliu,China,22.708311,110.354215,27,35,0.296,291944,382120,0.309,10689,10860,0.016,upper-middle-income
Gaomi,China,36.382595,119.755597,87,97,0.115,331419,381404,0.151,3798,3942,0.038,upper-middle-income
Laiyang,China,36.978941,120.711673,118,121,0.025,382390,381367,-0.003,3232,3150,-0.025,upper-middle-income
Chiai,Taiwan,23.4518428,120.2554615,82,86,0.049,361810,379409,0.049,4429,4405,-0.005,high-income
Hanzhong,China,33.06748,107.023323,24,52,1.167,227323,378203,0.664,9398,7291,-0.224,upper-middle-income
Nagano,Japan,36.6485496,138.1942432,105,108,0.029,321646,377665,0.174,3069,3497,0.139,high-income
Lumajang,Indonesia,-8.1347739,113.2334899,36,37,0.028,278453,376948,0.354,7748,10171,0.313,lower-middle-income
Qinzhou,China,21.979934,108.654147,60,94,0.567,241164,376635,0.562,3994,4025,0.008,upper-middle-income
Hengshui,China,37.73892,115.670177,86,92,0.07,296850,375430,0.265,3449,4067,0.179,upper-middle-income
Liuyang,China,28.162833,113.643076,43,56,0.302,298126,374050,0.255,6964,6717,-0.035,upper-middle-income
Pizhou,China,34.338888,118.012531,39,54,0.385,294693,373517,0.267,7472,6949,-0.07,upper-middle-income
Fuyang,China,32.890124,115.814205,32,80,1.5,186121,372645,1.002,5839,4636,-0.206,upper-middle-income
Taihe,China,33.160326,115.621934,99,102,0.03,365395,372460,0.019,3691,3652,-0.011,upper-middle-income
Huaihua,China,27.569517,110.001923,30,46,0.533,187449,372097,0.985,6209,8024,0.292,upper-middle-income
Chonju,Republic of Korea,37.9183333,127.2472222,36,42,0.167,311329,371836,0.194,8574,8788,0.025,high-income
Ansu,China,41.168779,80.260605,125,140,0.12,351659,370425,0.053,2810,2642,-0.06,upper-middle-income
Kuantan,Malaysia,3.816667,103.333333,117,140,0.197,256068,370028,0.445,2180,2648,0.215,upper-middle-income
Jining,China,35.414921,116.587099,77,87,0.13,294489,368185,0.25,3828,4217,0.102,upper-middle-income
Gongyi,China,34.747858,113.022501,44,60,0.364,294031,366454,0.246,6626,6101,-0.079,upper-middle-income
Shenzhou,China,38.001536,115.559574,147,147,0,367132,365602,-0.004,2495,2480,-0.006,upper-middle-income
Taixing,China,32.171854,120.051744,24,49,1.042,244869,365396,0.492,10337,7534,-0.271,upper-middle-income
Bianzhuang,China,36.9492553,122.1993231,48,58,0.208,305978,363517,0.188,6366,6261,-0.016,upper-middle-income
Kagoshima,Japan,31.5965535,130.5571158,77,81,0.052,320507,361543,0.128,4183,4457,0.066,high-income
Meihekou,China,42.530341,125.683832,112,123,0.098,350926,361232,0.029,3125,2949,-0.056,upper-middle-income
Jinzhou,China,39.05046,121.782769,90,92,0.022,340981,356611,0.046,3799,3858,0.016,upper-middle-income
Haobi,China,36.3126073,112.8955635,22,25,0.136,283250,355853,0.256,12949,14163,0.094,upper-middle-income
Shizuishan,China,38.983236,106.383304,35,38,0.086,258038,354918,0.375,7426,9264,0.248,upper-middle-income
Zhongxing,China,38.558319,110.291429,94,102,0.085,468207,354759,-0.242,4981,3470,-0.303,upper-middle-income
Longyan,China,25.075123,117.017537,55,85,0.545,227271,354553,0.56,4114,4162,0.012,upper-middle-income
Jiangdu,China,32.434672,119.569989,31,66,1.129,198517,353391,0.78,6469,5344,-0.174,upper-middle-income
Anpu,China,31.308418,80.763483,32,38,0.188,255272,352195,0.38,7900,9208,0.166,upper-middle-income
Yulin,China,38.28539,109.734589,34,42,0.235,231470,351475,0.518,6897,8393,0.217,upper-middle-income
Zhaozhou,China,45.699066,125.268643,80,80,0,336314,351069,0.044,4217,4382,0.039,upper-middle-income
Zamboanga,Philippines,6.9214424,122.0790267,35,39,0.114,262134,350889,0.339,7450,8968,0.204,lower-middle-income
Laixi,China,36.889084,120.51769,124,133,0.073,323969,350267,0.081,2617,2644,0.01,upper-middle-income
Taishan,China,36.192084,117.135354,50,70,0.4,277635,348808,0.256,5511,4992,-0.094,upper-middle-income
Chuxiong,China,25.045532,101.528069,28,40,0.429,236688,347389,0.468,8453,8631,0.021,upper-middle-income
Nongan,China,44.432889,125.184742,252,257,0.02,380921,346259,-0.091,1512,1350,-0.107,upper-middle-income
Xingning,China,24.13663,115.73111,19,38,1,184398,344937,0.871,9967,9033,-0.094,upper-middle-income
Hebi,China,35.747225,114.297273,108,114,0.056,323910,342894,0.059,3003,3014,0.004,upper-middle-income
Lianjiang,China,21.609673,110.286152,61,86,0.41,237430,341881,0.44,3924,3981,0.015,upper-middle-income
Yutian,China,39.900401,117.738658,98,104,0.061,315557,340778,0.08,3218,3279,0.019,upper-middle-income
Yishui,China,35.79045,118.627918,48,58,0.208,302471,340441,0.126,6269,5844,-0.068,upper-middle-income
Panzhihua,China,26.582347,101.718637,39,50,0.282,257479,339883,0.32,6591,6858,0.041,upper-middle-income
Yongcheng,China,33.929291,116.4495,105,110,0.048,328014,339349,0.035,3115,3076,-0.013,upper-middle-income
Iloilo,Philippines,10.7201501,122.5621063,33,39,0.182,246951,337552,0.367,7413,8573,0.156,lower-middle-income
Suihua,China,46.653845,126.968887,135,142,0.052,295741,337270,0.14,2196,2379,0.083,upper-middle-income
Anqiu,China,36.478494,119.218978,86,90,0.047,380319,337167,-0.113,4429,3728,-0.158,upper-middle-income
Shuozhou,China,39.331595,112.432825,100,117,0.17,235376,336256,0.429,2352,2874,0.222,upper-middle-income
Xiaogan,China,30.924568,113.916903,35,44,0.257,281765,336049,0.193,7993,7627,-0.046,upper-middle-income
Chengyang,China,36.307064,120.39631,72,79,0.097,317464,333934,0.052,4394,4254,-0.032,upper-middle-income
Baoshan,China,25.112046,99.161761,69,93,0.348,229469,333369,0.453,3338,3589,0.075,upper-middle-income
Xinghua,China,32.910459,119.852541,28,68,1.429,171464,332702,0.94,6235,4879,-0.217,upper-middle-income
Dali,China,25.606486,100.267638,48,60,0.25,232646,331360,0.424,4898,5511,0.125,upper-middle-income
Chiang Mai,Thailand,18.787747,98.9931284,53,66,0.245,238475,330652,0.387,4516,5010,0.109,upper-middle-income
Xingyang,China,34.787375,113.383221,47,58,0.234,252537,330620,0.309,5345,5706,0.068,upper-middle-income
Ku'erle,China,41.725891,86.174633,110,121,0.1,216560,328985,0.519,1962,2712,0.382,upper-middle-income
Shuangcheng,China,45.383263,126.312745,158,164,0.038,290589,328834,0.132,1836,2011,0.095,upper-middle-income
Yima,China,34.747185,111.874321,51,53,0.039,307260,328462,0.069,6025,6242,0.036,upper-middle-income
Zhaodong,China,46.051126,125.961814,163,165,0.012,300061,328458,0.095,1844,1997,0.083,upper-middle-income
Kurume,Japan,33.3192865,130.5083735,88,98,0.114,281007,328443,0.169,3196,3356,0.05,high-income
Xinzhou,China,38.416663,112.734174,68,76,0.118,280720,327820,0.168,4151,4331,0.043,upper-middle-income
Manado,Indonesia,1.4917014,124.842843,40,49,0.225,235278,325338,0.383,5891,6581,0.117,lower-middle-income
Pinghu,China,30.677233,121.015142,16,49,2.062,118637,323890,1.73,7415,6593,-0.111,upper-middle-income
Takamatsu,Japan,34.3427879,134.046574,123,131,0.065,278360,323652,0.163,2268,2475,0.091,high-income
Jiyuan,China,35.067243,112.601919,87,107,0.23,258050,320572,0.242,2951,2989,0.013,upper-middle-income
Hezhou,China,24.403582,111.566694,44,70,0.591,187426,319973,0.707,4218,4587,0.087,upper-middle-income
Weitang,China,32.8475254,106.7621203,18,72,3,104565,319346,2.054,5730,4459,-0.222,upper-middle-income
Neijiang,China,29.580229,105.058433,29,38,0.31,277042,316716,0.143,9451,8240,-0.128,upper-middle-income
Baguio,Philippines,16.4023332,120.5960071,35,46,0.314,222164,316654,0.425,6428,6819,0.061,lower-middle-income
Feixian,China,35.265961,117.977325,59,62,0.051,299450,316493,0.057,5097,5089,-0.002,upper-middle-income
Dujiangyan,China,30.988435,103.646912,25,49,0.96,189656,316489,0.669,7663,6426,-0.161,upper-middle-income
Linhe,China,40.751187,107.363919,81,92,0.136,269975,316430,0.172,3338,3425,0.026,upper-middle-income
Chuzhou,China,34.205768,117.284124,21,44,1.095,202119,316322,0.565,9568,7210,-0.246,upper-middle-income
Banda Aceh,Indonesia,5.55,95.316667,64,80,0.25,217711,315826,0.451,3395,3970,0.169,lower-middle-income
Yueping,China,29.0788396,113.6405226,47,58,0.234,247214,314972,0.274,5309,5454,0.027,upper-middle-income
Tancheng,China,34.613557,118.367263,51,58,0.137,296307,314179,0.06,5761,5399,-0.063,upper-middle-income
Longcheng,China,41.576749,120.413376,90,92,0.022,323944,313990,-0.031,3599,3422,-0.049,upper-middle-income
Fengcheng,China,28.159142,115.771094,32,45,0.406,205186,313966,0.53,6463,6987,0.081,upper-middle-income
Rugao,China,32.370557,120.574946,17,38,1.235,179626,313405,0.745,10764,8357,-0.224,upper-middle-income
Nakhon Ratchasima,Thailand,14.9798997,102.0977693,87,99,0.138,237952,313283,0.317,2727,3153,0.156,upper-middle-income
Alor Setar Kedah,Malaysia,6.1248,100.3678178,80,86,0.075,215537,313279,0.453,2698,3630,0.345,upper-middle-income
Shahe,China,23.151916,113.313064,62,69,0.113,281373,310706,0.104,4520,4503,-0.004,upper-middle-income
Qui Nhon,Vietnam,13.7723959,109.2425391,27,34,0.259,200778,310582,0.547,7318,9035,0.235,lower-middle-income
Huazhou,China,21.664044,110.639569,27,32,0.185,230315,310150,0.347,8510,9827,0.155,upper-middle-income
Yongchuan,China,29.356117,105.927376,18,40,1.222,135257,309979,1.292,7593,7737,0.019,upper-middle-income
Bencheng,China,39.506241,118.666681,134,228,0.701,289498,309479,0.069,2161,1355,-0.373,upper-middle-income
Suining,China,30.532847,105.592898,29,47,0.621,216687,308815,0.425,7408,6544,-0.117,upper-middle-income
Viangchan,Lao PDR,18.0065536,102.6395628,48,97,1.021,134290,307044,1.286,2809,3167,0.127,lower-middle-income
Gaozhou,China,21.917982,110.853302,28,32,0.143,266146,305841,0.149,9421,9690,0.029,upper-middle-income
Oita,Japan,33.2395578,131.609272,100,106,0.06,267361,305626,0.143,2675,2883,0.078,high-income
Yuzhou,China,31.298974,120.585297,33,41,0.242,243852,305285,0.252,7489,7367,-0.016,upper-middle-income
Bago,Myanmar,17.333333,96.483333,64,64,0,242840,304817,0.255,3802,4758,0.251,low-income
Wuchang,China,30.55412,114.316082,157,159,0.013,303653,304171,0.002,1930,1908,-0.011,upper-middle-income
Lingcheng,China,40.614763,120.72831,98,100,0.02,280452,303985,0.084,2869,3049,0.063,upper-middle-income
Yanzhou,China,35.553144,116.783834,35,46,0.314,248883,303876,0.221,7048,6615,-0.061,upper-middle-income
Wuzhong,China,31.298974,120.585297,8,36,3.5,131633,303215,1.303,16985,8423,-0.504,upper-middle-income
Liupanshui,China,26.592666,104.830359,18,21,0.167,205051,302615,0.476,11552,14717,0.274,upper-middle-income
Huanghua,China,38.371383,117.330048,189,223,0.18,252132,302295,0.199,1335,1354,0.014,upper-middle-income
Niushan,China,27.9722918,120.650897,86,93,0.081,329236,301808,-0.083,3837,3234,-0.157,upper-middle-income
Potou,China,21.244721,110.455332,90,91,0.011,280959,301508,0.073,3139,3302,0.052,upper-middle-income
Yuxi,China,24.350461,102.543907,46,72,0.565,181862,300045,0.65,3954,4146,0.049,upper-middle-income
Fuzhou,China,26.074508,119.296494,36,46,0.278,226829,299817,0.322,6301,6465,0.026,upper-middle-income
Shihezi,China,44.306097,86.080602,56,84,0.5,422900,299676,-0.291,7552,3552,-0.53,upper-middle-income
Kuala Terengganu,Malaysia,5.329624,103.1370142,74,76,0.027,211812,298654,0.41,2872,3956,0.377,upper-middle-income
Yunfu,China,22.915094,112.044491,45,65,0.444,215022,297832,0.385,4758,4591,-0.035,upper-middle-income
Changge,China,34.216688,113.76833,65,67,0.031,273332,297745,0.089,4217,4461,0.058,upper-middle-income
Pohang,Republic of Korea,36.0190178,129.3434808,55,64,0.164,261236,297278,0.138,4723,4672,-0.011,high-income
Kaiyuan,China,42.546307,124.038268,109,116,0.064,278182,296934,0.067,2548,2558,0.004,upper-middle-income
Long Xuyen,Vietnam,10.3759416,105.4185406,18,24,0.333,182927,296004,0.618,10023,12175,0.215,lower-middle-income
Leizhou,China,20.914278,110.096749,35,42,0.2,229972,295579,0.285,6501,7017,0.079,upper-middle-income
Shizilu,China,30.0397222,121.5341667,66,71,0.076,301375,294203,-0.024,4588,4158,-0.094,upper-middle-income
Xianning,China,29.841443,114.322492,29,64,1.207,202050,292949,0.45,6937,4568,-0.342,upper-middle-income
Tianshui,China,34.580864,105.724947,46,61,0.326,218076,292844,0.343,4747,4830,0.017,upper-middle-income
Zaoyang,China,32.128818,112.771959,101,103,0.02,297759,291535,-0.021,2948,2824,-0.042,upper-middle-income
Xinle,China,38.343296,114.684014,55,69,0.255,239008,291238,0.219,4321,4198,-0.028,upper-middle-income
Huozhou,China,36.568931,111.755398,106,116,0.094,267616,290616,0.086,2531,2508,-0.009,upper-middle-income
Luoding,China,22.768595,111.570011,33,40,0.212,220432,289958,0.315,6667,7318,0.098,upper-middle-income
Shanwei,China,22.786211,115.375279,32,37,0.156,228248,289882,0.27,7105,7808,0.099,upper-middle-income
Liling,China,27.64613,113.496894,22,28,0.273,234559,289263,0.233,10632,10285,-0.033,upper-middle-income
Wendeng,China,37.193886,122.057941,67,83,0.239,253492,289056,0.14,3798,3496,-0.08,upper-middle-income
Sinuiju,DPR Korea,40.1,124.4,30,32,0.067,258938,288876,0.116,8778,8906,0.015,low-income
Lhasa,China,29.652491,91.17211,75,105,0.4,213038,288163,0.353,2833,2735,-0.035,upper-middle-income
Hejin,China,35.596383,110.712063,78,90,0.154,249071,286256,0.149,3201,3178,-0.007,upper-middle-income
Qidong,China,31.808026,121.657441,23,45,0.957,163216,285216,0.747,7039,6312,-0.103,upper-middle-income
Changyi,China,36.85882,119.398525,132,135,0.023,317116,284701,-0.102,2404,2110,-0.122,upper-middle-income
Liyang,China,31.416911,119.484211,23,67,1.913,134857,283460,1.102,5769,4243,-0.265,upper-middle-income
Yingde,China,24.186062,113.415045,54,80,0.481,178047,283331,0.591,3286,3550,0.08,upper-middle-income
Zhongxiang,China,31.16782,112.588121,90,96,0.067,265717,281633,0.06,2940,2943,0.001,upper-middle-income
Linqu,China,36.512506,118.542982,46,54,0.174,257165,281312,0.094,5629,5240,-0.069,upper-middle-income
Fenghua,China,29.655143,121.406995,62,111,0.79,211514,280668,0.327,3388,2530,-0.253,upper-middle-income
Zhangye,China,38.925875,100.449818,22,38,0.727,198517,277879,0.4,8973,7241,-0.193,upper-middle-income
Meishan,China,30.07544,103.848538,27,49,0.815,155165,276886,0.784,5734,5658,-0.013,upper-middle-income
Changli,China,39.712818,119.162704,80,87,0.088,256394,275441,0.074,3212,3177,-0.011,upper-middle-income
Qufu,China,35.581137,116.986532,48,52,0.083,254938,275127,0.079,5297,5323,0.005,upper-middle-income
Palu,Indonesia,-0.9,119.833333,52,55,0.058,199820,274020,0.371,3838,4943,0.288,lower-middle-income
Fujieda,Japan,34.8673673,138.2574584,91,97,0.066,240912,273732,0.136,2660,2827,0.063,high-income
Hanchuan,China,30.661244,113.839149,30,42,0.4,210525,273050,0.297,7047,6501,-0.077,upper-middle-income
Wuhai,China,39.655389,106.794249,26,30,0.154,180976,272902,0.508,6944,9040,0.302,upper-middle-income
Lanxi,China,29.208474,119.460468,44,84,0.909,197522,272323,0.379,4476,3235,-0.277,upper-middle-income
Yuanping,China,38.731402,112.711059,63,72,0.143,245567,270458,0.101,3871,3783,-0.023,upper-middle-income
Tianmen,China,30.663337,113.166078,42,45,0.071,289026,270210,-0.065,6851,6072,-0.114,upper-middle-income
Hat Yai,Thailand,7.0086472,100.4746879,39,46,0.179,196456,270048,0.375,5005,5871,0.173,upper-middle-income
Daojiang,China,23.4328462,116.1804447,47,79,0.681,204270,269835,0.321,4346,3424,-0.212,upper-middle-income
Tebingtinggi,Indonesia,3.3262879,99.1566855,17,20,0.176,194934,269791,0.384,11681,13835,0.184,lower-middle-income
Xinyi,China,34.36958,118.354537,36,51,0.417,213686,269754,0.262,5925,5263,-0.112,upper-middle-income
General Santos,Philippines,6.1163861,125.171618,54,68,0.259,180978,269341,0.488,3348,3976,0.188,lower-middle-income
Sandakan,Malaysia,5.839444,118.1171729,53,57,0.075,184252,268595,0.458,3476,4712,0.356,upper-middle-income
Anguo,China,38.41844,115.326647,95,95,0,274619,268460,-0.022,2895,2830,-0.022,upper-middle-income
Cagayan de Oro,Philippines,8.4542363,124.6318977,38,47,0.237,184947,268087,0.45,4812,5674,0.179,lower-middle-income
Leling,China,37.729907,117.231935,69,72,0.043,243954,267553,0.097,3520,3710,0.054,upper-middle-income
Yanshi,China,34.727221,112.789544,46,56,0.217,285057,266174,-0.066,6214,4796,-0.228,upper-middle-income
Nagasaki,Japan,32.7502856,129.877667,44,47,0.068,237747,266084,0.119,5411,5646,0.043,high-income
Haimen,China,31.871173,121.181615,17,39,1.294,138046,265679,0.925,7917,6878,-0.131,upper-middle-income
Jiehu,China,40.000238,116.267782,53,56,0.057,264041,265360,0.005,5017,4707,-0.062,upper-middle-income
Hetian,China,37.114157,79.922211,24,26,0.083,151574,264845,0.747,6299,10089,0.602,upper-middle-income
Xingcheng,China,40.614763,120.72831,106,120,0.132,235197,263809,0.122,2212,2197,-0.007,upper-middle-income
Pengzhou,China,30.990109,103.958014,30,43,0.433,198117,263068,0.328,6673,6118,-0.083,upper-middle-income
Xiantao,China,30.360882,113.423482,36,42,0.167,285725,261581,-0.085,8020,6210,-0.226,upper-middle-income
Ambon,Indonesia,-3.705,128.17,27,27,0,195934,261186,0.333,7394,9856,0.333,lower-middle-income
Yucheng,China,34.397577,115.864942,73,75,0.027,258722,259759,0.004,3544,3484,-0.017,upper-middle-income
Dancheng,China,33.644743,115.177189,56,89,0.589,194588,257648,0.324,3448,2909,-0.156,upper-middle-income
Xiangcheng,China,28.931172,99.798435,37,38,0.027,263815,257269,-0.025,7059,6748,-0.044,upper-middle-income
Linan,China,30.233873,119.724733,15,38,1.533,130523,256950,0.969,8963,6685,-0.254,upper-middle-income
Xingping,China,34.299221,108.490475,30,43,0.433,200955,256408,0.276,6741,5937,-0.119,upper-middle-income
Taiping,Malaysia,4.851932,100.7416339,46,58,0.261,166251,256056,0.54,3580,4382,0.224,upper-middle-income
Chonan,Republic of Korea,36.810238,127.146417,33,48,0.455,180017,255274,0.418,5507,5270,-0.043,high-income
Bukit Tinggi,Indonesia,-0.305556,100.369167,16,20,0.25,168531,255158,0.514,10743,12838,0.195,lower-middle-income
Ruijin,China,25.885555,116.027135,26,50,0.923,134096,254744,0.9,5084,5095,0.002,upper-middle-income
Batu Pahat,Malaysia,1.849442,102.9288341,62,66,0.065,176880,253996,0.436,2859,3874,0.355,upper-middle-income
Jiangyan,China,32.509155,120.127934,19,47,1.474,145605,252542,0.734,7792,5424,-0.304,upper-middle-income
Nangong,China,37.359264,115.408748,57,59,0.035,246469,251846,0.022,4338,4282,-0.013,upper-middle-income
Chinju,Republic of Korea,35.1799817,128.1076213,39,45,0.154,215094,251443,0.169,5471,5534,0.012,high-income
Hai'an,China,32.533573,120.467343,12,35,1.917,108387,250544,1.312,9127,7146,-0.217,upper-middle-income
Acheng,China,45.54867,126.958098,117,125,0.068,255373,249898,-0.021,2182,2001,-0.083,upper-middle-income
Zhoushan,China,29.985295,122.207216,28,49,0.75,146945,249838,0.7,5236,5054,-0.035,upper-middle-income
Zhaoyuan,China,37.355469,120.434072,89,94,0.056,250917,249769,-0.005,2809,2662,-0.052,upper-middle-income
Yancheng,China,33.347383,120.163562,88,91,0.034,236602,248622,0.051,2683,2726,0.016,upper-middle-income
Haiyang,China,36.776378,121.158434,90,101,0.122,230745,248054,0.075,2578,2467,-0.043,upper-middle-income
Jintan,China,31.723248,119.597897,24,64,1.667,129008,247824,0.921,5475,3899,-0.288,upper-middle-income
Vung Tau,Vietnam,10.4113797,107.136224,20,29,0.45,156378,247475,0.583,7819,8497,0.087,lower-middle-income
Monywa,Myanmar,22.108333,95.141667,30,40,0.333,153632,246660,0.606,5079,6215,0.224,low-income
Xinmin,China,41.996508,122.828868,124,152,0.226,213857,246327,0.152,1730,1620,-0.064,upper-middle-income
Baiyin,China,36.545015,104.138586,39,44,0.128,220260,246200,0.118,5585,5644,0.011,upper-middle-income
Liangshi,China,33.2530599,110.6645688,18,27,0.5,219653,245639,0.118,12077,9119,-0.245,upper-middle-income
Xiajin,China,36.948371,116.001726,47,48,0.021,231955,245579,0.059,4942,5077,0.027,upper-middle-income
Xichang,China,27.894504,102.264449,27,48,0.778,140092,245158,0.75,5286,5107,-0.034,upper-middle-income
Dehui,China,44.51023,125.720649,143,151,0.056,274082,243747,-0.111,1913,1620,-0.153,upper-middle-income
Cotabato,Philippines,7.216667,124.25,10,12,0.2,181076,242993,0.342,17995,20571,0.143,lower-middle-income
Xiazhen,China,34.810243,117.120877,65,73,0.123,227821,242960,0.066,3518,3320,-0.056,upper-middle-income
Zhongwei,China,37.499973,105.196902,13,30,1.308,140247,240540,0.715,10685,8137,-0.238,upper-middle-income
Tumxuk,China,39.864867,79.069332,65,74,0.138,176514,240514,0.363,2723,3270,0.201,upper-middle-income
Lishui,China,28.46763,119.922796,21,46,1.19,113771,239388,1.104,5323,5218,-0.02,upper-middle-income
Ruzhou,China,34.16703,112.844517,36,39,0.083,218096,239021,0.096,6144,6139,-0.001,upper-middle-income
Gu'an,China,39.438214,116.298657,58,83,0.431,184929,238791,0.291,3213,2868,-0.107,upper-middle-income
Hancheng,China,35.476788,110.442847,52,68,0.308,202650,237664,0.173,3907,3514,-0.101,upper-middle-income
Bengkulu,Indonesia,-3.7920671,102.2619957,21,28,0.333,151727,237637,0.566,7140,8412,0.178,lower-middle-income
Yishan,China,35.3741839,116.9810314,45,51,0.133,268770,237415,-0.117,5956,4627,-0.223,upper-middle-income
Qianjiang,China,30.40211,112.900079,46,48,0.043,242293,237130,-0.021,5282,4915,-0.069,upper-middle-income
Changning,China,31.220367,121.424629,22,31,0.409,181898,237072,0.303,8107,7663,-0.055,upper-middle-income
Baishan,China,41.940977,126.424251,33,37,0.121,205106,237058,0.156,6192,6396,0.033,upper-middle-income
Miri,Malaysia,4.399493,113.9913832,94,105,0.117,161911,236731,0.462,1720,2253,0.31,upper-middle-income
Kupang,Indonesia,-10.1787573,123.5976057,40,40,0,243357,236166,-0.03,6074,5895,-0.029,lower-middle-income
Jiuquan,China,39.732819,98.494352,30,46,0.533,146801,234738,0.599,4934,5082,0.03,upper-middle-income
Haila'er,China,49.212192,119.736436,75,88,0.173,169689,234666,0.383,2278,2669,0.172,upper-middle-income
Xinmi,China,34.539443,113.390891,25,29,0.16,203551,234608,0.153,8022,8107,0.011,upper-middle-income
Yangchun,China,22.170438,111.791539,27,40,0.481,163247,233917,0.433,6103,5812,-0.048,upper-middle-income
Huanggang,China,30.453906,114.872316,29,36,0.241,209255,233802,0.117,7263,6428,-0.115,upper-middle-income
Port Moresby,Papua New Guinea,-9.4438004,147.1802671,43,44,0.023,190406,233051,0.224,4428,5274,0.191,lower-middle-income
Ube,Japan,33.9515087,131.2467858,94,99,0.053,206110,232669,0.129,2188,2361,0.079,high-income
Emeishan,China,29.601199,103.484504,45,47,0.044,217588,230832,0.061,4835,4924,0.018,upper-middle-income
Bandar Seri Begawan,Brunei,4.890278,114.942222,144,180,0.25,155900,230300,0.477,1079,1278,0.184,high-income
Qixia,China,32.096168,118.908493,93,95,0.022,249828,229903,-0.08,2676,2425,-0.094,upper-middle-income
Hailun,China,47.461971,126.973143,144,147,0.021,212607,229869,0.081,1472,1567,0.065,upper-middle-income
Shulan,China,44.406106,126.965607,84,85,0.012,230497,228903,-0.007,2750,2679,-0.026,upper-middle-income
Cheju,Republic of Korea,33.4996213,126.5311884,58,66,0.138,196707,227708,0.158,3366,3463,0.029,high-income
Jiangyou,China,31.777979,104.745731,30,51,0.7,158661,227492,0.434,5367,4423,-0.176,upper-middle-income
Tongchuan,China,34.896756,108.945233,24,28,0.167,210249,227142,0.08,8806,8241,-0.064,upper-middle-income
Laibin,China,23.750306,109.221466,46,64,0.391,158559,227071,0.432,3442,3572,0.038,upper-middle-income
Koriyama,Japan,37.400529,140.3597421,65,69,0.062,197074,226794,0.151,3035,3311,0.091,high-income
Guangyuan,China,32.435435,105.843357,34,56,0.647,150466,225271,0.497,4425,4027,-0.09,upper-middle-income
Xiangxiang,China,27.73412,112.535028,12,27,1.25,114254,224463,0.965,9672,8294,-0.142,upper-middle-income
Asahikawa,Japan,43.7706355,142.364819,74,76,0.027,193024,224416,0.163,2608,2953,0.132,high-income
Penglai,China,37.810661,120.758848,98,108,0.102,235043,224157,-0.046,2391,2082,-0.129,upper-middle-income
Lingbao,China,34.516839,110.894206,53,54,0.019,219888,224033,0.019,4188,4139,-0.012,upper-middle-income
Miluo,China,28.806394,113.06724,14,30,1.143,119349,223108,0.869,8267,7499,-0.093,upper-middle-income
Jiangjin,China,29.290069,106.259281,23,43,0.87,132586,221778,0.673,5749,5203,-0.095,upper-middle-income
Suizhou,China,31.690216,113.382458,58,67,0.155,215368,220302,0.023,3737,3294,-0.119,upper-middle-income
Zhicheng,China,30.297792,111.500775,19,45,1.368,108081,220252,1.038,5688,4943,-0.131,upper-middle-income
Hakodate,Japan,41.7687933,140.7288103,60,61,0.017,189272,219760,0.161,3164,3632,0.148,high-income
Dazhou,China,31.209572,107.468023,22,25,0.136,171511,218048,0.271,7730,8788,0.137,upper-middle-income
Pangkalpinang,Indonesia,-2.133333,106.116667,42,44,0.048,159915,217454,0.36,3791,4985,0.315,lower-middle-income
Phan Thiet,Vietnam,10.933333,108.1,19,20,0.053,153898,217256,0.412,7918,10863,0.372,lower-middle-income
Qingyang,China,35.709077,107.643631,48,57,0.188,206948,216955,0.048,4300,3806,-0.115,upper-middle-income
Gaoping,China,35.797997,112.92392,31,32,0.032,208971,216644,0.037,6714,6878,0.024,upper-middle-income
Lianyuan,China,27.692542,111.664316,17,23,0.353,164193,216597,0.319,9623,9341,-0.029,upper-middle-income
Yichuan,China,34.421349,112.42564,29,35,0.207,179494,215885,0.203,6203,6213,0.002,upper-middle-income
Beining,China,39.904211,116.407395,64,72,0.125,201822,214885,0.065,3138,3000,-0.044,upper-middle-income
Xinyi,China,34.36958,118.354537,15,22,0.467,160574,214529,0.336,10444,9724,-0.069,upper-middle-income
Yingtan,China,28.260189,117.069202,27,34,0.259,161062,214385,0.331,5924,6225,0.051,upper-middle-income
Panshi,China,42.946285,126.060427,103,108,0.049,217307,214054,-0.015,2116,1977,-0.066,upper-middle-income
Qionghai,China,19.258342,110.474648,22,28,0.273,167905,213336,0.271,7546,7502,-0.006,upper-middle-income
Dagupan,Philippines,16.0432998,120.3333124,35,37,0.057,167367,213323,0.275,4808,5825,0.212,lower-middle-income
Qionglai,China,30.410275,103.464156,16,34,1.125,116585,211816,0.817,7432,6253,-0.159,upper-middle-income
Suicheng,China,26.314775,116.346995,29,36,0.241,193711,211130,0.09,6738,5906,-0.123,upper-middle-income
Baicheng,China,45.619588,122.838826,80,85,0.062,187459,210719,0.124,2347,2492,0.062,upper-middle-income
Wucheng,China,30.55412,114.316082,54,55,0.019,201436,210685,0.046,3713,3818,0.028,upper-middle-income
Dengfeng,China,34.453667,113.050492,29,38,0.31,158418,210649,0.33,5522,5608,0.016,upper-middle-income
Rushan,China,36.919816,121.539764,48,63,0.312,167394,210019,0.255,3456,3357,-0.029,upper-middle-income
Cenxi,China,22.91835,110.994913,15,30,1,109990,209986,0.909,7272,6942,-0.045,upper-middle-income
Dongfang,China,19.095351,108.651815,44,48,0.091,170484,209323,0.228,3919,4322,0.103,upper-middle-income
Phan Rang,Vietnam,11.56269,108.994797,25,25,0,150176,208839,0.391,5962,8210,0.377,lower-middle-income
Manzhouli,China,49.597798,117.378727,46,58,0.261,143535,208612,0.453,3129,3601,0.151,upper-middle-income
Yizheng,China,32.272258,119.184766,20,38,0.9,143696,208272,0.449,7345,5526,-0.248,upper-middle-income
Jizhou,China,37.550821,115.579334,66,67,0.015,213141,208042,-0.024,3229,3096,-0.041,upper-middle-income
Jiutai,China,44.151742,125.839574,95,113,0.189,236791,207954,-0.122,2489,1845,-0.259,upper-middle-income
Linxia,China,35.601182,103.210539,9,23,1.556,117004,207867,0.777,12649,8941,-0.293,upper-middle-income
Nantou,Taiwan,23.9609981,120.9718638,37,39,0.054,196193,206602,0.053,5303,5323,0.004,high-income
Morioka,Japan,39.702053,141.1544838,47,50,0.064,173698,206011,0.186,3735,4157,0.113,high-income
Yongji,China,34.86705,110.447549,64,64,0,193934,205631,0.06,3045,3194,0.049,upper-middle-income
Hon Gai,Vietnam,20.9711977,107.0448069,36,54,0.5,128787,203257,0.578,3602,3742,0.039,lower-middle-income
Thanh Hoa,Vietnam,20.1291279,105.3131185,21,21,0,146712,202509,0.38,6924,9558,0.38,lower-middle-income
Akita,Japan,39.7200079,140.1025642,62,63,0.016,173999,202077,0.161,2815,3217,0.143,high-income
Jingmen,China,31.035423,112.199265,42,45,0.071,177337,201786,0.138,4210,4472,0.062,upper-middle-income
Chaohu,China,31.598628,117.8618,21,38,0.81,123832,201757,0.629,6022,5309,-0.118,upper-middle-income
Sunchon,Republic of Korea,34.950637,127.4872135,42,49,0.167,176374,201584,0.143,4218,4135,-0.02,high-income
Khon-kaen,Thailand,16.4419355,102.8359921,36,51,0.417,113270,200868,0.773,3191,3929,0.231,upper-middle-income
Hechuan,China,29.972084,106.27613,15,28,0.867,121936,200820,0.647,8267,7062,-0.146,upper-middle-income
Shangzhi,China,45.209586,128.009895,89,98,0.101,184507,200797,0.088,2073,2045,-0.014,upper-middle-income
Yongzhou,China,26.420394,111.613445,24,45,0.875,133601,199908,0.496,5524,4486,-0.188,upper-middle-income
Dipu,China,30.631627,119.686586,11,35,2.182,87170,199111,1.284,8204,5659,-0.31,upper-middle-income
Saga,Japan,33.2494416,130.2997942,59,66,0.119,169036,197987,0.171,2868,2994,0.044,high-income
Enping,China,22.183206,112.305145,37,47,0.27,161964,197889,0.222,4392,4188,-0.046,upper-middle-income
Wulanhaote,China,46.072732,122.093123,48,54,0.125,154128,196340,0.274,3207,3607,0.125,upper-middle-income
Gejiu,China,23.359121,103.160034,33,42,0.273,164028,195765,0.193,4952,4682,-0.055,upper-middle-income
Anning,China,24.919493,102.478494,42,64,0.524,131438,192484,0.464,3097,2993,-0.034,upper-middle-income
Jiayuguan,China,39.77313,98.289152,35,48,0.371,120642,192386,0.595,3422,3982,0.164,upper-middle-income
Lingyuan,China,41.245445,119.401574,35,39,0.114,189043,191868,0.015,5450,4912,-0.099,upper-middle-income
Changji,China,44.011183,87.308225,82,104,0.268,154100,190469,0.236,1882,1840,-0.022,upper-middle-income
Mianzhu,China,31.338077,104.22075,14,37,1.643,97034,189940,0.957,6993,5177,-0.26,upper-middle-income
Hongqiao,China,39.167346,117.151534,14,17,0.214,136669,189176,0.384,10077,10849,0.077,upper-middle-income
Touliu,Taiwan,23.156133,120.463008,68,69,0.015,183432,188614,0.028,2683,2716,0.012,high-income
Sanchahe,China,25.384475,98.382827,41,47,0.146,151778,188276,0.24,3736,3995,0.069,upper-middle-income
Jieshou,China,33.257013,115.374564,36,37,0.028,206499,188019,-0.089,5786,5056,-0.126,upper-middle-income
Fukushima,Japan,37.7608337,140.4747282,49,50,0.02,167358,187772,0.122,3446,3774,0.095,high-income
Yongzhou,China,26.420394,111.613445,24,36,0.5,114497,187648,0.639,4746,5168,0.089,upper-middle-income
Wanning,China,18.795143,110.391073,20,25,0.25,147316,186854,0.268,7208,7512,0.042,upper-middle-income
Qingtongxia,China,38.021302,106.078818,19,40,1.105,125349,186604,0.489,6753,4709,-0.303,upper-middle-income
Fu'an,China,27.088049,119.64777,22,28,0.273,157285,186341,0.185,7010,6685,-0.046,upper-middle-income
Lucena,Philippines,13.9413957,121.6234471,11,16,0.455,124417,185455,0.491,11375,11775,0.035,lower-middle-income
Tawau,Malaysia,4.244651,117.8911861,47,52,0.106,121818,184783,0.517,2609,3554,0.362,upper-middle-income
Aomori,Japan,40.822072,140.7473647,55,59,0.073,155398,184780,0.189,2838,3122,0.1,high-income
Jiaohe,China,43.723713,127.344501,109,117,0.073,184171,184384,0.001,1692,1578,-0.067,upper-middle-income
Wuyuan,China,29.248086,117.861798,16,35,1.188,95037,182644,0.922,5917,5265,-0.11,upper-middle-income
Zhaotong,China,27.338257,103.717465,13,24,0.846,97458,182357,0.871,7570,7618,0.006,upper-middle-income
Jurong,China,31.944999,119.168695,17,36,1.118,91102,181619,0.994,5459,5002,-0.084,upper-middle-income
Hachinohe,Japan,40.5122839,141.4883986,68,70,0.029,155373,181477,0.168,2293,2595,0.132,high-income
Huangshan,China,29.714748,118.337621,16,31,0.938,105969,181021,0.708,6623,5781,-0.127,upper-middle-income
Yan'an,China,36.585445,109.489757,40,41,0.025,151758,180804,0.191,3818,4370,0.145,upper-middle-income
Dili,Timor-Leste,-8.55,125.566667,28,28,0,115901,180734,0.559,4085,6369,0.559,lower-middle-income
Jinchang,China,38.520089,102.188043,27,33,0.222,152876,179453,0.174,5742,5511,-0.04,upper-middle-income
Lengshuijiang,China,27.686252,111.434984,19,30,0.579,152023,179323,0.18,8028,6040,-0.248,upper-middle-income
Anshun,China,26.253072,105.947594,20,22,0.1,169308,179095,0.058,8655,8211,-0.051,upper-middle-income
Thai Nguyen,Vietnam,21.5613771,105.876004,22,22,0,129450,178680,0.38,5901,8145,0.38,lower-middle-income
Karamay,China,45.579889,84.889207,43,45,0.047,98053,178304,0.818,2280,3984,0.747,upper-middle-income
Dongtai,China,32.866933,120.320752,21,38,0.81,126160,178066,0.411,6008,4733,-0.212,upper-middle-income
Ankang,China,32.684715,109.029022,21,30,0.429,125203,178060,0.422,5857,5886,0.005,upper-middle-income
Ji'an,China,27.113443,114.992509,25,32,0.28,131835,178054,0.351,5340,5532,0.036,upper-middle-income
Xuancheng,China,30.94069,118.758588,14,31,1.214,86430,176933,1.047,6286,5628,-0.105,upper-middle-income
Zhaozhen,China,34.557031,108.505716,22,32,0.455,136528,176816,0.295,6241,5526,-0.115,upper-middle-income
Sanming,China,26.263407,117.638678,19,24,0.263,144318,176483,0.223,7775,7510,-0.034,upper-middle-income
Kluang,Malaysia,2.030068,103.3184639,54,59,0.093,121799,175927,0.444,2271,2979,0.312,upper-middle-income
Wusu,China,44.435508,84.678549,126,137,0.087,107374,175487,0.634,851,1283,0.508,upper-middle-income
Fangchengang,China,21.68686,108.353847,34,42,0.235,116041,175179,0.51,3394,4146,0.222,upper-middle-income
Hami,China,42.81842,93.515151,55,59,0.073,137109,174938,0.276,2516,2946,0.171,upper-middle-income
Pingliang,China,35.543061,106.665131,16,34,1.125,82335,174267,1.117,5248,5163,-0.016,upper-middle-income
Huadian,China,42.972097,126.74631,80,87,0.088,161225,173387,0.075,2015,1992,-0.011,upper-middle-income
Nanma,China,42.2951955,123.8577714,21,26,0.238,144072,173058,0.201,6902,6770,-0.019,upper-middle-income
Yamagata,Japan,38.2554388,140.3396017,77,84,0.091,136878,171192,0.251,1781,2033,0.141,high-income
Shangmei,China,31.230416,121.473701,15,24,0.6,105612,170866,0.618,7070,7119,0.007,upper-middle-income
Bijie,China,27.283955,105.291644,7,17,1.429,81387,170654,1.097,11036,9929,-0.1,upper-middle-income
Nagaoka,Japan,37.4462652,138.8512772,55,57,0.036,145349,169648,0.167,2652,2976,0.122,high-income
Wucheng,China,30.55412,114.316082,14,29,1.071,96557,167699,0.737,7054,5833,-0.173,upper-middle-income
Gaoyou,China,32.781659,119.459161,19,31,0.632,118090,167602,0.419,6135,5363,-0.126,upper-middle-income
Huaicheng,China,41.9459796,101.0430558,19,28,0.474,108607,167335,0.541,5679,5990,0.055,upper-middle-income
Nanping,China,26.641769,118.177708,36,47,0.306,141665,167192,0.18,3970,3529,-0.111,upper-middle-income
Jiangshan,China,28.737223,118.626974,31,48,0.548,128131,166812,0.302,4108,3507,-0.146,upper-middle-income
Udon Thani,Thailand,17.4138413,102.7872325,40,50,0.25,111426,165866,0.489,2808,3326,0.184,upper-middle-income
Yuanjiang,China,28.847045,112.355954,19,28,0.474,121115,164583,0.359,6459,5931,-0.082,upper-middle-income
Sibu,Malaysia,2.287284,111.830535,67,75,0.119,111129,163368,0.47,1656,2186,0.32,upper-middle-income
Chongjin,DPR Korea,41.8,129.783333,58,59,0.017,150075,163365,0.089,2602,2790,0.072,low-income
Ziyang,China,30.128901,104.627636,20,26,0.3,151734,163358,0.077,7447,6375,-0.144,upper-middle-income
Xifeng,China,27.090479,106.740408,14,24,0.714,93835,162283,0.729,6763,6815,0.008,upper-middle-income
Play Cu,Vietnam,14.004481,108.016797,26,27,0.038,115234,161358,0.4,4379,5962,0.361,lower-middle-income
Houma,China,35.619105,111.372002,24,25,0.042,149392,159956,0.071,6113,6414,0.049,upper-middle-income
Namp'o,DPR Korea,38.7522606,125.3246769,17,17,0,142194,159524,0.122,8585,9248,0.077,low-income
Jaya Pura,Indonesia,-2.533,140.717,15,16,0.067,116975,158366,0.354,7734,10095,0.305,lower-middle-income
Jiande,China,29.474877,119.281163,31,44,0.419,130266,157762,0.211,4236,3596,-0.151,upper-middle-income
Sishui,China,35.664323,117.251195,33,35,0.061,156845,157650,0.005,4691,4464,-0.048,upper-middle-income
Tarakan,Indonesia,3.303628,117.6242802,27,30,0.111,115119,157534,0.368,4274,5340,0.249,lower-middle-income
Hikone,Japan,35.274461,136.2596226,52,58,0.115,132601,157256,0.186,2559,2729,0.066,high-income
Macheng,China,31.17274,115.008163,39,46,0.179,173035,157226,-0.091,4395,3395,-0.228,upper-middle-income
Sariwon,DPR Korea,38.506389,125.759722,13,13,0,145051,157014,0.082,11377,12078,0.062,low-income
Yitong,China,43.345754,125.305394,65,68,0.046,151279,156662,0.036,2330,2314,-0.007,upper-middle-income
Tiefa,China,46.072871,122.057447,33,36,0.091,152244,156642,0.029,4684,4359,-0.069,upper-middle-income
Changqing,China,36.553571,116.751937,29,31,0.069,129007,155132,0.203,4410,4935,0.119,upper-middle-income
Xilinhaote,China,43.933411,116.086032,42,54,0.286,96021,155002,0.614,2300,2860,0.243,upper-middle-income
Yongqing,China,39.321794,116.499028,55,56,0.018,160676,154707,-0.037,2905,2781,-0.043,upper-middle-income
Dumai,Indonesia,1.6675239,101.4481883,25,25,0,115868,154526,0.334,4705,6243,0.327,lower-middle-income
Cam Pha,Vietnam,21.015757,107.3316667,19,29,0.526,103821,154489,0.488,5556,5421,-0.024,lower-middle-income
Tuy Hoa,Vietnam,13.0822,109.3162,20,20,0,110633,154459,0.396,5619,7558,0.345,lower-middle-income
Xidu,China,24.9788815,107.5532473,13,17,0.308,121454,153835,0.267,9433,9049,-0.041,upper-middle-income
Nehe,China,48.484099,124.884244,155,155,0,163518,152232,-0.069,1054,981,-0.069,upper-middle-income
Fengcheng,China,28.159142,115.771094,44,51,0.159,136674,152218,0.114,3142,2959,-0.058,upper-middle-income
Yosu ,Republic of Korea,34.7603737,127.6622221,28,31,0.107,135478,152207,0.123,4796,4920,0.026,high-income
Chizhou,China,30.6648,117.491568,19,31,0.632,96583,152073,0.575,4969,4986,0.003,upper-middle-income
Wuxue,China,29.844107,115.561217,19,22,0.158,153028,151241,-0.012,8216,6994,-0.149,upper-middle-income
Hualien,Taiwan,23.9499886,121.5518908,43,49,0.14,134798,151183,0.122,3108,3097,-0.004,high-income
Sorong,Indonesia,-0.866667,131.25,27,27,0,112873,150478,0.333,4249,5665,0.333,lower-middle-income
Gao'an,China,28.417255,115.375616,29,36,0.241,120600,150406,0.247,4159,4207,0.012,upper-middle-income
Zhangjiajie,China,29.117096,110.479191,12,28,1.333,65649,150179,1.288,5442,5328,-0.021,upper-middle-income
Kaili,China,26.566867,107.981212,17,19,0.118,119330,149598,0.254,7151,7721,0.08,upper-middle-income
Shifang,China,31.12678,104.167501,19,26,0.368,130982,149381,0.14,6760,5773,-0.146,upper-middle-income
Ningde,China,26.665617,119.547933,24,36,0.5,112677,149195,0.324,4744,4116,-0.132,upper-middle-income
Tulufan,China,42.951384,89.189655,75,86,0.147,130465,149116,0.143,1751,1734,-0.01,upper-middle-income
Pathein,Myanmar,16.774167,94.731667,17,17,0,118947,148630,0.25,6971,8585,0.232,low-income
Guixi,China,28.292519,117.245497,30,33,0.1,130545,148320,0.136,4425,4461,0.008,upper-middle-income
Da Lat,Vietnam,11.9404192,108.4583132,15,16,0.067,103286,147933,0.432,7123,9506,0.335,lower-middle-income
Yicheng,China,31.719806,112.257788,54,55,0.019,148424,147850,-0.004,2749,2688,-0.022,upper-middle-income
Lingwu,China,38.102655,106.340054,5,26,4.2,52620,147621,1.805,11226,5747,-0.488,upper-middle-income
Cam Ranh,Vietnam,11.913611,109.136944,7,7,0,105853,147210,0.391,14727,20131,0.367,lower-middle-income
Funan,China,32.658297,115.595644,19,23,0.211,134855,147070,0.091,7216,6500,-0.099,upper-middle-income
Chibi,China,29.724692,113.900628,15,24,0.6,105519,145860,0.382,7005,6174,-0.119,upper-middle-income
Vinh Long,Vietnam,10.2448442,105.958865,11,11,0,104702,144902,0.384,9465,13098,0.384,lower-middle-income
Gujiao,China,37.907082,112.175884,44,45,0.023,143041,144671,0.011,3270,3224,-0.014,upper-middle-income
Linxiang,China,29.476849,113.450423,10,22,1.2,70530,144571,1.05,6839,6516,-0.047,upper-middle-income
Ningguo,China,30.633571,118.982915,7,23,2.286,56060,144447,1.577,8462,6332,-0.252,upper-middle-income
Shishou,China,29.720938,112.425454,16,26,0.625,102837,144078,0.401,6328,5502,-0.131,upper-middle-income
Jin'e,China,29.3569559,113.1445809,11,16,0.455,110676,143486,0.296,10417,8763,-0.159,upper-middle-income
Xucheng,China,34.035506,113.85264,35,46,0.314,119948,143464,0.196,3477,3136,-0.098,upper-middle-income
Huangmei,China,30.070454,115.944219,15,22,0.467,119335,143107,0.199,8230,6599,-0.198,upper-middle-income
Laohekou,China,32.38676,111.674928,37,39,0.054,149707,142883,-0.046,4026,3711,-0.078,upper-middle-income
Wenchang,China,19.543279,110.79776,33,42,0.273,103613,142486,0.375,3182,3382,0.063,upper-middle-income
Iligan,Philippines,8.2280209,124.2452422,11,13,0.182,101006,141727,0.403,9130,10798,0.183,lower-middle-income
Kure,Japan,34.2492541,132.5658045,32,33,0.031,129020,140457,0.089,4048,4297,0.062,high-income
Tagum,Philippines,7.448212,125.8094242,15,21,0.4,91253,138986,0.523,6266,6560,0.047,lower-middle-income
Pakokku,Myanmar,21.333333,95.083333,35,36,0.029,108808,138609,0.274,3081,3811,0.237,low-income
Dunhua,China,43.372413,128.232013,107,112,0.047,132371,138101,0.043,1241,1239,-0.002,upper-middle-income
Longnan,China,33.400685,104.921841,13,19,0.462,98430,137973,0.402,7394,7408,0.002,upper-middle-income
Lechang,China,25.130136,113.347519,26,36,0.385,119963,137269,0.144,4636,3846,-0.17,upper-middle-income
Marawi,Philippines,8,124.3,5,6,0.2,98228,136994,0.395,20411,22832,0.119,lower-middle-income
Xingyi,China,25.09204,104.895467,15,23,0.533,87681,136504,0.557,5773,6050,0.048,upper-middle-income
Ningan,China,44.34072,129.482851,94,97,0.032,133247,136380,0.024,1416,1401,-0.011,upper-middle-income
Sasebo,Japan,33.1799153,129.7151101,30,33,0.1,120556,136087,0.129,4002,4078,0.019,high-income
Niihama,Japan,33.9602895,133.2833512,70,77,0.1,115144,136070,0.182,1646,1764,0.072,high-income
Bitung,Indonesia,1.4820335,125.148879,15,18,0.2,98958,135749,0.372,6489,7729,0.191,lower-middle-income
Bole,China,44.85387,82.051005,53,64,0.208,115876,135676,0.171,2192,2135,-0.026,upper-middle-income
Iwaki,Japan,37.0504195,140.8876817,49,51,0.041,124978,135339,0.083,2570,2654,0.033,high-income
Padangsidempuan,Indonesia,1.378611,99.272222,5,6,0.2,98166,135131,0.377,19882,24293,0.222,lower-middle-income
Kushiro,Japan,42.9848542,144.3813556,50,51,0.02,114090,134946,0.183,2276,2646,0.163,high-income
Douhuti,China,34.459797,107.984434,26,27,0.038,148793,134810,-0.094,5723,5016,-0.124,upper-middle-income
Tokuyama,Japan,34.0647516,131.8144403,55,56,0.018,121485,134190,0.105,2219,2418,0.09,high-income
Kanggye,DPR Korea,40.966667,126.6,13,15,0.154,119840,133200,0.111,8918,9186,0.03,low-income
Tarlac,Philippines,15.4754786,120.5963492,29,44,0.517,72581,133092,0.834,2481,3038,0.225,lower-middle-income
Huoqiu,China,32.353038,116.277912,23,30,0.304,108341,132657,0.224,4685,4413,-0.058,upper-middle-income
Da'an,China,45.506996,124.292626,66,67,0.015,130571,132499,0.015,1967,1974,0.004,upper-middle-income
Yidu,China,30.378327,111.450006,16,21,0.312,102971,132272,0.285,6386,6206,-0.028,upper-middle-income
Rach Gia,Vietnam,9.9585194,105.1335705,7,7,0,93885,131324,0.399,14306,19637,0.373,lower-middle-income
Gorontalo,Indonesia,0.533333,123.066667,29,32,0.103,94986,131031,0.379,3261,4071,0.248,lower-middle-income
Surat Thani,Thailand,9.1382389,99.3217483,20,36,0.8,61670,130860,1.122,3017,3648,0.209,upper-middle-income
Yichun,China,27.815619,114.416778,21,24,0.143,129325,130769,0.011,6251,5565,-0.11,upper-middle-income
Ruichang,China,29.675874,115.681337,15,21,0.4,93959,130693,0.391,6238,6317,0.013,upper-middle-income
Thai Binh,Vietnam,20.4463471,106.3365828,10,15,0.5,76276,130485,0.711,7977,8999,0.128,lower-middle-income
Zhijiang,China,30.42594,111.760531,21,23,0.095,119519,130231,0.09,5691,5601,-0.016,upper-middle-income
Soc Trang,Vietnam,9.6003688,105.9599539,12,13,0.083,90045,130199,0.446,7543,9920,0.315,lower-middle-income
Caohe,China,40.4719833,124.1327673,20,24,0.2,141280,128463,-0.091,7222,5438,-0.247,upper-middle-income
Myingyan,Myanmar,21.4662223,95.38872,28,30,0.071,98685,128102,0.298,3470,4261,0.228,low-income
Dehong,China,24.433353,98.584895,25,39,0.56,73092,127050,0.738,2976,3284,0.103,upper-middle-income
Hirosaki,Japan,40.6031243,140.4639223,38,41,0.079,106435,126424,0.188,2787,3084,0.107,high-income
Rayong,Thailand,12.707434,101.1473517,36,47,0.306,86985,125715,0.445,2442,2678,0.097,upper-middle-income
Kuitun,China,44.426529,84.903267,36,40,0.111,203124,125357,-0.383,5722,3159,-0.448,upper-middle-income
Watampone,Indonesia,-4.538772,120.324997,13,14,0.077,83928,125073,0.49,6583,8777,0.333,lower-middle-income
Yanling,China,34.102332,114.1774,16,19,0.188,126410,124606,-0.014,8058,6690,-0.17,upper-middle-income
Toungoo,Myanmar,18.933333,96.433333,23,24,0.043,97339,123756,0.271,4198,5266,0.254,low-income
Qingzhen,China,26.556079,106.470715,13,18,0.385,92261,122965,0.333,7272,6669,-0.083,upper-middle-income
Salatiga,Indonesia,-7.3368305,110.4988172,7,9,0.286,69913,122170,0.747,9988,12945,0.296,lower-middle-income
Kunsan,Republic of Korea,35.9676772,126.7366293,33,36,0.091,105805,121816,0.151,3218,3360,0.044,high-income
Matsue,Japan,35.4680595,133.048375,32,32,0,109551,121695,0.111,3478,3759,0.081,high-income
Zhangshu,China,28.055853,115.546152,17,23,0.353,85601,121612,0.421,4927,5203,0.056,upper-middle-income
Ubon Ratchathani,Thailand,15.2286861,104.8564217,27,29,0.074,97555,121546,0.246,3572,4219,0.181,upper-middle-income
Lufeng,China,22.917576,115.65226,26,31,0.192,103889,121498,0.169,4035,3872,-0.04,upper-middle-income
Hailin,China,44.594213,129.380482,63,71,0.127,121353,121268,-0.001,1921,1719,-0.105,upper-middle-income
Shangzhou,China,33.862703,109.941241,8,11,0.375,93750,121179,0.293,11450,11541,0.008,upper-middle-income
My Tho,Vietnam,10.3765284,106.3438891,6,6,0,88172,121128,0.374,15503,21297,0.374,lower-middle-income
Ca Mau,Vietnam,8.9624099,105.1258955,11,12,0.091,83737,120665,0.441,7744,10269,0.326,lower-middle-income
Muling,China,44.918813,130.524437,57,66,0.158,116805,120567,0.032,2036,1835,-0.099,upper-middle-income
Renhuai,China,27.79165,106.400342,10,14,0.4,85608,120392,0.406,8952,8918,-0.004,upper-middle-income
Xuanwei,China,26.219767,104.104475,23,26,0.13,101662,120317,0.184,4518,4673,0.034,upper-middle-income
Mengyin,China,35.710032,117.945085,21,24,0.143,119935,119932,0,5627,5103,-0.093,upper-middle-income
Bei'an,China,48.239136,126.481867,98,98,0,121370,119932,-0.012,1238,1219,-0.015,upper-middle-income
Yingcheng,China,30.92837,113.572707,16,17,0.062,127422,119640,-0.061,7811,7196,-0.079,upper-middle-income
Omuta,Japan,33.0302622,130.4459852,43,45,0.047,105528,119389,0.131,2429,2642,0.088,high-income
Dangyang,China,30.821266,111.788312,30,33,0.1,116562,118991,0.021,3910,3633,-0.071,upper-middle-income
Shimonoseki,Japan,33.9578307,130.941459,42,43,0.024,109675,117875,0.075,2615,2753,0.053,high-income
Ejin Horo,China,39.56466,109.74774,8,35,3.375,30539,117863,2.859,3759,3410,-0.093,upper-middle-income
Zixing,China,25.976243,113.236146,21,29,0.381,95898,117554,0.226,4678,4080,-0.128,upper-middle-income
Pyin-Oo-Lwin,Myanmar,22.03455,96.458747,15,27,0.8,61410,117456,0.913,4199,4340,0.034,low-income
Tomakomai,Japan,42.6343021,141.6053721,62,67,0.081,99541,117440,0.18,1610,1764,0.096,high-income
Hongning,China,30.2367183,120.2651936,34,36,0.059,115862,117257,0.012,3389,3229,-0.047,upper-middle-income
Zhangjiang,China,25.4111263,107.8804408,16,21,0.312,94366,117096,0.241,5921,5510,-0.069,upper-middle-income
Tieli,China,46.98664,128.032422,57,64,0.123,109500,117073,0.069,1908,1824,-0.044,upper-middle-income
Songzi,China,30.176768,111.779894,18,19,0.056,125399,115747,-0.077,6967,6194,-0.111,upper-middle-income
Mishan,China,45.529775,131.846636,103,108,0.049,118766,114753,-0.034,1154,1062,-0.08,upper-middle-income
Longjiang,China,47.338665,123.205323,77,79,0.026,110779,114651,0.035,1432,1451,0.013,upper-middle-income
Taonan,China,45.335961,122.786735,67,70,0.045,114067,114604,0.005,1695,1649,-0.027,upper-middle-income
Batangas,Philippines,13.7564651,121.0583076,22,27,0.227,76078,114349,0.503,3528,4305,0.22,lower-middle-income
Kabankalan,Philippines,9.983333,122.816667,15,26,0.733,68368,114300,0.672,4558,4471,-0.019,lower-middle-income
Fengzhen,China,40.436983,113.109892,27,30,0.111,112538,113985,0.013,4102,3848,-0.062,upper-middle-income
Jishou,China,28.262507,109.698055,13,19,0.462,78372,113393,0.447,6117,5871,-0.04,upper-middle-income
Sibolga,Indonesia,1.7403745,98.7827988,7,10,0.429,59715,113185,0.895,8929,11179,0.252,lower-middle-income
Jianyang,China,30.410755,104.546774,18,21,0.167,132238,113115,-0.145,7556,5501,-0.272,upper-middle-income
Cabanatuan,Philippines,15.4865047,120.973393,25,28,0.12,87254,112614,0.291,3456,4086,0.182,lower-middle-income
Guangan,China,30.455962,106.633212,13,17,0.308,110098,112606,0.023,8388,6576,-0.216,upper-middle-income
Xinshi,China,43.843752,87.573916,38,41,0.079,112890,112050,-0.007,2956,2767,-0.064,upper-middle-income
Wonsan,DPR Korea,39.1475,127.446111,11,11,0,101922,111725,0.096,9426,10215,0.084,low-income
Pingyin,China,36.289265,116.456187,21,22,0.048,111013,111337,0.003,5286,5046,-0.045,upper-middle-income
Yuanzhou,China,24.874132,118.675676,24,39,0.625,78204,110690,0.415,3250,2875,-0.115,upper-middle-income
Beipiao,China,41.800684,120.77073,43,46,0.07,121246,110026,-0.093,2807,2408,-0.142,upper-middle-income
Lampang,Thailand,18.2888404,99.490874,29,30,0.034,89595,109525,0.222,3137,3636,0.159,upper-middle-income
Nanchuan,China,29.157891,107.099266,9,27,2,52927,109195,1.063,5608,4007,-0.285,upper-middle-income
Ishinomaki,Japan,38.4344802,141.3029167,37,38,0.027,95281,107087,0.124,2558,2786,0.089,high-income
Butuan,Philippines,8.9475377,125.5406234,10,12,0.2,71756,106491,0.484,7131,8783,0.232,lower-middle-income
Obihiro,Japan,42.9238989,143.1961031,58,61,0.052,88930,105222,0.183,1545,1739,0.126,high-income
Lijiang,China,26.855047,100.227751,41,63,0.537,57722,104994,0.819,1425,1672,0.173,upper-middle-income
Wugang,China,33.307776,113.524794,30,32,0.067,98156,104979,0.07,3327,3300,-0.008,upper-middle-income
Gaosha,China,26.41811,117.9043722,8,12,0.5,68822,103927,0.51,8406,8571,0.02,upper-middle-income
Bontang,Indonesia,0.133333,117.5,32,35,0.094,72767,102673,0.411,2310,2908,0.259,lower-middle-income
Ya'an,China,29.980537,103.013261,11,14,0.273,82845,102463,0.237,7364,7452,0.012,upper-middle-income
Anlu,China,31.255594,113.689025,18,20,0.111,103012,101835,-0.011,5587,5189,-0.071,upper-middle-income
Haeju,DPR Korea,38.033333,125.716667,12,12,0,92038,101766,0.106,7630,8307,0.089,low-income
Atushi,China,39.71616,76.1684,10,11,0.1,80301,101671,0.266,8081,9458,0.17,upper-middle-income
Tanjungpinang,Indonesia,0.9179205,104.446464,23,30,0.304,68493,100838,0.472,2930,3375,0.152,lower-middle-income
Yonago,Japan,35.4280717,133.3309447,29,30,0.034,87472,100272,0.146,3003,3315,0.104,high-income